[
  {
    "StudentId": "7653",
    "StudentName": "Adrian Deshaun Blackmon",
    "Lattitude": "29.89533",
    "Longittude": "-95.45794"
  },
  {
    "StudentId": "40629",
    "StudentName": "Rodrigo Isaac Meono",
    "Lattitude": "30.01569",
    "Longittude": "-95.38828"
  },
  {
    "StudentId": "27123",
    "StudentName": "Jairo Moises Vargas Acosta",
    "Lattitude": "29.85531",
    "Longittude": "-95.46592"
  },
  {
    "StudentId": "38872",
    "StudentName": "A'Lon Mi'Lon Butler",
    "Lattitude": "29.94177",
    "Longittude": "-95.43605"
  },
  {
    "StudentId": "41522",
    "StudentName": "Zhia Jnia Dougan",
    "Lattitude": "30.00363",
    "Longittude": "-95.28688"
  },
  {
    "StudentId": "66427",
    "StudentName": "Kenia Emelina Osorio Mendez",
    "Lattitude": "29.95118",
    "Longittude": "-95.39526"
  },
  {
    "StudentId": "46842",
    "StudentName": "Rico James Cruz Calvo",
    "Lattitude": "30.02077",
    "Longittude": "-95.29096"
  },
  {
    "StudentId": "53637",
    "StudentName": "Ke'ilana Daisha Mendiola Castro",
    "Lattitude": "30.01762",
    "Longittude": "-95.3015"
  },
  {
    "StudentId": "19802",
    "StudentName": "Isaiah Troy Yff",
    "Lattitude": "30.02426",
    "Longittude": "-95.38861"
  },
  {
    "StudentId": "43920",
    "StudentName": "Joshua Laiken Meshell",
    "Lattitude": "30.00776",
    "Longittude": "-95.36367"
  },
  {
    "StudentId": "46055",
    "StudentName": "Paola Samantha Sanchez",
    "Lattitude": "29.90109",
    "Longittude": "-95.41035"
  },
  {
    "StudentId": "55975",
    "StudentName": "Josiah Andrew Ayala",
    "Lattitude": "29.91284",
    "Longittude": "-95.42634"
  },
  {
    "StudentId": "55644",
    "StudentName": "Kaylee Reyes Figueroa",
    "Lattitude": "29.89089",
    "Longittude": "-95.39178"
  },
  {
    "StudentId": "15594",
    "StudentName": "Ramon Reyes",
    "Lattitude": "29.90707",
    "Longittude": "-95.43283"
  },
  {
    "StudentId": "32260",
    "StudentName": "Luchiano Uriostegui",
    "Lattitude": "29.89169",
    "Longittude": "-95.40312"
  },
  {
    "StudentId": "41734",
    "StudentName": "Jeremiah Anthony Palacios",
    "Lattitude": "29.91923",
    "Longittude": "-95.43748"
  },
  {
    "StudentId": "63952",
    "StudentName": "Andrea Diane Rivera",
    "Lattitude": "29.89468",
    "Longittude": "-95.41901"
  },
  {
    "StudentId": "9951",
    "StudentName": "Jayden Xavier Leal",
    "Lattitude": "29.91176",
    "Longittude": "-95.43713"
  },
  {
    "StudentId": "51627",
    "StudentName": "Hadassa Valloleth Garcia",
    "Lattitude": "29.8995",
    "Longittude": "-95.40191"
  },
  {
    "StudentId": "48996",
    "StudentName": "Sebastian Mosqueda",
    "Lattitude": "29.89437",
    "Longittude": "-95.41537"
  },
  {
    "StudentId": "29564",
    "StudentName": "Juan Barron",
    "Lattitude": "29.89087",
    "Longittude": "-95.41937"
  },
  {
    "StudentId": "38818",
    "StudentName": "Alexander Van Tran",
    "Lattitude": "29.91997",
    "Longittude": "-95.43748"
  },
  {
    "StudentId": "38437",
    "StudentName": "Josue Juan Velasquez",
    "Lattitude": "29.88985",
    "Longittude": "-95.41523"
  },
  {
    "StudentId": "21459",
    "StudentName": "Japheth Avelino Kirk Vasquez",
    "Lattitude": "29.89465",
    "Longittude": "-95.39998"
  },
  {
    "StudentId": "14652",
    "StudentName": "Dylan Gael Sandres Martinez",
    "Lattitude": "29.91724",
    "Longittude": "-95.4204"
  },
  {
    "StudentId": "65578",
    "StudentName": "Jhovanni Robert Aviles",
    "Lattitude": "29.89192",
    "Longittude": "-95.42296"
  },
  {
    "StudentId": "65801",
    "StudentName": "Steven Jair Hernandez",
    "Lattitude": "29.89699",
    "Longittude": "-95.41883"
  },
  {
    "StudentId": "10437",
    "StudentName": "Yahir Navia",
    "Lattitude": "29.91992",
    "Longittude": "-95.44124"
  },
  {
    "StudentId": "58057",
    "StudentName": "Matthew Julio Martinez",
    "Lattitude": "29.93452",
    "Longittude": "-95.41568"
  },
  {
    "StudentId": "6083",
    "StudentName": "Maria Guadalupe Casas Pinto",
    "Lattitude": "29.88755",
    "Longittude": "-95.39403"
  },
  {
    "StudentId": "5048",
    "StudentName": "Emil Ariel Murillo Hernandez",
    "Lattitude": "29.903",
    "Longittude": "-95.31779"
  },
  {
    "StudentId": "26651",
    "StudentName": "Scherleen Itzel Aguirre",
    "Lattitude": "29.8776",
    "Longittude": "-95.33247"
  },
  {
    "StudentId": "67214",
    "StudentName": "Pablo Eduardo Esquivel",
    "Lattitude": "29.90352",
    "Longittude": "-95.31726"
  },
  {
    "StudentId": "11289",
    "StudentName": "Dennis Alessandro Martel Alvarado",
    "Lattitude": "29.88868",
    "Longittude": "-95.32099"
  },
  {
    "StudentId": "38919",
    "StudentName": "Emily Monserrath Lara Reyes",
    "Lattitude": "29.903",
    "Longittude": "-95.31779"
  },
  {
    "StudentId": "54195",
    "StudentName": "Jesus Heriberto Guzman",
    "Lattitude": "29.88469",
    "Longittude": "-95.32597"
  },
  {
    "StudentId": "14796",
    "StudentName": "Genesis Berenisse Esquivel Alonso",
    "Lattitude": "29.89348",
    "Longittude": "-95.31937"
  },
  {
    "StudentId": "11218",
    "StudentName": "Lian Yassyr Escobar Guillen",
    "Lattitude": "29.87758",
    "Longittude": "-95.33454"
  },
  {
    "StudentId": "46550",
    "StudentName": "Carolina Lopez",
    "Lattitude": "29.87238",
    "Longittude": "-95.3336"
  },
  {
    "StudentId": "7357",
    "StudentName": "Nicolas Rene Roman",
    "Lattitude": "29.88856",
    "Longittude": "-95.32566"
  },
  {
    "StudentId": "66804",
    "StudentName": "Mckenzie Josephine Salazar",
    "Lattitude": "29.8881",
    "Longittude": "-95.3277"
  },
  {
    "StudentId": "18818",
    "StudentName": "Robert Ethan Torres",
    "Lattitude": "29.89484",
    "Longittude": "-95.32601"
  },
  {
    "StudentId": "45696",
    "StudentName": "Andrea Melissa Lopez Castanon",
    "Lattitude": "29.90129",
    "Longittude": "-95.31706"
  },
  {
    "StudentId": "52101",
    "StudentName": "Mishel Annay Orozco Aguilar",
    "Lattitude": "29.90129",
    "Longittude": "-95.31706"
  },
  {
    "StudentId": "52212",
    "StudentName": "Rut Valentina Yanes",
    "Lattitude": "29.90129",
    "Longittude": "-95.31706"
  },
  {
    "StudentId": "31305",
    "StudentName": "Cindy De Los Santos",
    "Lattitude": "29.91821",
    "Longittude": "-95.47595"
  },
  {
    "StudentId": "12448",
    "StudentName": "Alexander Luis Sifuentes",
    "Lattitude": "29.91958",
    "Longittude": "-95.48932"
  },
  {
    "StudentId": "65063",
    "StudentName": "Jakelin Reyes",
    "Lattitude": "29.91566",
    "Longittude": "-95.47588"
  },
  {
    "StudentId": "55700",
    "StudentName": "Ariana Juliet Ulloa",
    "Lattitude": "29.93075",
    "Longittude": "-95.46542"
  },
  {
    "StudentId": "44641",
    "StudentName": "Eric Ramirez",
    "Lattitude": "29.9303",
    "Longittude": "-95.47605"
  },
  {
    "StudentId": "42866",
    "StudentName": "Josue Daniel Velis Hernandez",
    "Lattitude": "29.93639",
    "Longittude": "-95.46269"
  },
  {
    "StudentId": "54325",
    "StudentName": "Marcos Romero",
    "Lattitude": "29.91821",
    "Longittude": "-95.47595"
  },
  {
    "StudentId": "37977",
    "StudentName": "Brandon Yahir Martinez",
    "Lattitude": "29.93361",
    "Longittude": "-95.40321"
  },
  {
    "StudentId": "45869",
    "StudentName": "Azeneth Nicole Gonzalez",
    "Lattitude": "29.93281",
    "Longittude": "-95.40112"
  },
  {
    "StudentId": "13376",
    "StudentName": "Izabella Alejandra Fuentes",
    "Lattitude": "29.9274",
    "Longittude": "-95.40646"
  },
  {
    "StudentId": "16081",
    "StudentName": "Victoria Nahomy Murillo Reyes",
    "Lattitude": "29.93361",
    "Longittude": "-95.40321"
  },
  {
    "StudentId": "32059",
    "StudentName": "Isaac Alberto Maldonado",
    "Lattitude": "29.94757",
    "Longittude": "-95.40418"
  },
  {
    "StudentId": "20109",
    "StudentName": "Sofia Gonzalez",
    "Lattitude": "29.93281",
    "Longittude": "-95.40112"
  },
  {
    "StudentId": "6453",
    "StudentName": "Jason Alberto Mancia",
    "Lattitude": "29.9489",
    "Longittude": "-95.39013"
  },
  {
    "StudentId": "57983",
    "StudentName": "Marcus Jasiah Ansiso",
    "Lattitude": "29.94685",
    "Longittude": "-95.39173"
  },
  {
    "StudentId": "23420",
    "StudentName": "Edwin Damian Natividad-Gonzalez",
    "Lattitude": "29.93058",
    "Longittude": "-95.40849"
  },
  {
    "StudentId": "62925",
    "StudentName": "Lana Denisse Pena Cazares",
    "Lattitude": "29.92789",
    "Longittude": "-95.394"
  },
  {
    "StudentId": "22167",
    "StudentName": "Santiago Almazan",
    "Lattitude": "29.91936",
    "Longittude": "-95.43325"
  },
  {
    "StudentId": "67654",
    "StudentName": "Amanda Isvette Atondo",
    "Lattitude": "29.93753",
    "Longittude": "-95.40889"
  },
  {
    "StudentId": "41329",
    "StudentName": "Brittney Dioshaily Cernas Gutierrez",
    "Lattitude": "29.92581",
    "Longittude": "-95.40348"
  },
  {
    "StudentId": "26182",
    "StudentName": "Jose Antonio Hernandez",
    "Lattitude": "29.88762",
    "Longittude": "-95.31849"
  },
  {
    "StudentId": "56871",
    "StudentName": "Manuel Eugenio Cardenas Alonso",
    "Lattitude": "29.93361",
    "Longittude": "-95.40321"
  },
  {
    "StudentId": "27180",
    "StudentName": "Brithany Nicole Torres Archeval",
    "Lattitude": "29.94658",
    "Longittude": "-95.36042"
  },
  {
    "StudentId": "32701",
    "StudentName": "Alexis Cristina Garcia",
    "Lattitude": "29.88071",
    "Longittude": "-95.34097"
  },
  {
    "StudentId": "65677",
    "StudentName": "Angela Yameli De La Fuente",
    "Lattitude": "29.8765",
    "Longittude": "-95.31999"
  },
  {
    "StudentId": "31202",
    "StudentName": "Sandra Garcia",
    "Lattitude": "29.87671",
    "Longittude": "-95.33331"
  },
  {
    "StudentId": "4782",
    "StudentName": "Salvanna Patino",
    "Lattitude": "29.93354",
    "Longittude": "-95.48721"
  },
  {
    "StudentId": "26542",
    "StudentName": "Destiny Cuevas",
    "Lattitude": "30.0159",
    "Longittude": "-95.31422"
  },
  {
    "StudentId": "55803",
    "StudentName": "Cesar Joel Rivera Montes",
    "Lattitude": "29.98834",
    "Longittude": "-95.40795"
  },
  {
    "StudentId": "47379",
    "StudentName": "Christian Ivan Alvarez",
    "Lattitude": "30.02394",
    "Longittude": "-95.29803"
  },
  {
    "StudentId": "63477",
    "StudentName": "Ulises Remberto Flores Miranda",
    "Lattitude": "30.02598",
    "Longittude": "-95.41979"
  },
  {
    "StudentId": "22992",
    "StudentName": "Enrique Castillo Chavez",
    "Lattitude": "29.94392",
    "Longittude": "-95.29874"
  },
  {
    "StudentId": "64419",
    "StudentName": "Abigail Alexis Coronado",
    "Lattitude": "29.94194",
    "Longittude": "-95.35993"
  },
  {
    "StudentId": "32393",
    "StudentName": "Jeselle Marie Luna",
    "Lattitude": "30.00959",
    "Longittude": "-95.28863"
  },
  {
    "StudentId": "16095",
    "StudentName": "Jianni Benjamin Trevino",
    "Lattitude": "30.01522",
    "Longittude": "-95.28474"
  },
  {
    "StudentId": "9431",
    "StudentName": "Lizbeth Anahy Cruz",
    "Lattitude": "30.01362",
    "Longittude": "-95.40937"
  },
  {
    "StudentId": "24481",
    "StudentName": "Stephanie Gonzalez Torres",
    "Lattitude": "29.98787",
    "Longittude": "-95.40541"
  },
  {
    "StudentId": "47759",
    "StudentName": "Ashley Salgado",
    "Lattitude": "30.01866",
    "Longittude": "-95.31993"
  },
  {
    "StudentId": "8529",
    "StudentName": "Valerie Gonzalez",
    "Lattitude": "30.01191",
    "Longittude": "-95.29559"
  },
  {
    "StudentId": "41962",
    "StudentName": "Erik Lisandro Lopez",
    "Lattitude": "30.03344",
    "Longittude": "-95.37592"
  },
  {
    "StudentId": "11776",
    "StudentName": "Jason Alberto Moran",
    "Lattitude": "30.02911",
    "Longittude": "-95.41983"
  },
  {
    "StudentId": "24642",
    "StudentName": "Aaliyah Celeste Portillo",
    "Lattitude": "30.01901",
    "Longittude": "-95.3128"
  },
  {
    "StudentId": "13820",
    "StudentName": "Jose Bertin Pereira Alfaro",
    "Lattitude": "30.00789",
    "Longittude": "-95.30074"
  },
  {
    "StudentId": "20444",
    "StudentName": "Andrea Arasley Valdez",
    "Lattitude": "29.95913",
    "Longittude": "-95.3017"
  },
  {
    "StudentId": "10941",
    "StudentName": "Victor Eduardo Amaya Amaya",
    "Lattitude": "29.95618",
    "Longittude": "-95.26347"
  },
  {
    "StudentId": "6297",
    "StudentName": "Kenry Omar Cacho Ruiz",
    "Lattitude": "30.01255",
    "Longittude": "-95.37683"
  },
  {
    "StudentId": "34966",
    "StudentName": "Erika Gisselle Ortiz Guardado",
    "Lattitude": "30.01188",
    "Longittude": "-95.29795"
  },
  {
    "StudentId": "23102",
    "StudentName": "Eva Isabel Leiva",
    "Lattitude": "29.97052",
    "Longittude": "-95.37936"
  },
  {
    "StudentId": "28384",
    "StudentName": "Arle Juleer Fuentes",
    "Lattitude": "29.96746",
    "Longittude": "-95.37786"
  },
  {
    "StudentId": "35354",
    "StudentName": "Iris Madelyn Garcia",
    "Lattitude": "29.94468",
    "Longittude": "-95.36131"
  },
  {
    "StudentId": "7807",
    "StudentName": "Gerardo Hernandez",
    "Lattitude": "29.98779",
    "Longittude": "-95.40607"
  },
  {
    "StudentId": "44111",
    "StudentName": "Antonio Solis",
    "Lattitude": "29.96269",
    "Longittude": "-95.30646"
  },
  {
    "StudentId": "52451",
    "StudentName": "Amy Sophia Vazquez",
    "Lattitude": "30.00841",
    "Longittude": "-95.41131"
  },
  {
    "StudentId": "37109",
    "StudentName": "Melanie Denise Osegueda",
    "Lattitude": "29.98775",
    "Longittude": "-95.40382"
  },
  {
    "StudentId": "63328",
    "StudentName": "Alexis Nicole Alvarez",
    "Lattitude": "30.03288",
    "Longittude": "-95.41563"
  },
  {
    "StudentId": "10273",
    "StudentName": "Kiara Valeria Erazo",
    "Lattitude": "30.0084",
    "Longittude": "-95.29977"
  },
  {
    "StudentId": "53291",
    "StudentName": "Eduardo Puente",
    "Lattitude": "30.03037",
    "Longittude": "-95.38997"
  },
  {
    "StudentId": "27154",
    "StudentName": "Madelynn Margaux Mendoza",
    "Lattitude": "30.00521",
    "Longittude": "-95.48799"
  },
  {
    "StudentId": "12012",
    "StudentName": "Carlos Alejandro Lobo Izaguirre",
    "Lattitude": "30.03405",
    "Longittude": "-95.38689"
  },
  {
    "StudentId": "14040",
    "StudentName": "Luis Diaz Vasquez",
    "Lattitude": "29.94733",
    "Longittude": "-95.29589"
  },
  {
    "StudentId": "36152",
    "StudentName": "Rolando Fabian Banda",
    "Lattitude": "30.03331",
    "Longittude": "-95.38444"
  },
  {
    "StudentId": "39752",
    "StudentName": "Amy Guadalupe Flores",
    "Lattitude": "30.01249",
    "Longittude": "-95.28568"
  },
  {
    "StudentId": "3100",
    "StudentName": "George Sanchez",
    "Lattitude": "30.01085",
    "Longittude": "-95.29512"
  },
  {
    "StudentId": "25606",
    "StudentName": "Osmany Alejandro Hernandez Baldassari",
    "Lattitude": "30.01917",
    "Longittude": "-95.32278"
  },
  {
    "StudentId": "54702",
    "StudentName": "Brianna Marit Hernandez Baldassari",
    "Lattitude": "30.01917",
    "Longittude": "-95.32278"
  },
  {
    "StudentId": "34949",
    "StudentName": "Joshua Anthony Rodriguez",
    "Lattitude": "30.01943",
    "Longittude": "-95.28577"
  },
  {
    "StudentId": "11810",
    "StudentName": "Ruben Niccasio Morales Phillips",
    "Lattitude": "30.02546",
    "Longittude": "-95.389"
  },
  {
    "StudentId": "4205",
    "StudentName": "Cristina Alejandra Martinez Marroquin",
    "Lattitude": "29.98822",
    "Longittude": "-95.40299"
  },
  {
    "StudentId": "46764",
    "StudentName": "Kiana Denisse Reyes Portillo",
    "Lattitude": "29.94767",
    "Longittude": "-95.37419"
  },
  {
    "StudentId": "18423",
    "StudentName": "Alejandro Israel Licea",
    "Lattitude": "30.01065",
    "Longittude": "-95.40609"
  },
  {
    "StudentId": "36832",
    "StudentName": "Daleysa Baena Medellin",
    "Lattitude": "30.01946",
    "Longittude": "-95.30051"
  },
  {
    "StudentId": "13668",
    "StudentName": "Dylan Gael Munoz",
    "Lattitude": "30.01114",
    "Longittude": "-95.31677"
  },
  {
    "StudentId": "63433",
    "StudentName": "Edgar Omar Ortega-Cardenas",
    "Lattitude": "30.02002",
    "Longittude": "-95.29129"
  },
  {
    "StudentId": "47274",
    "StudentName": "Ximena Mosqueda",
    "Lattitude": "30.01935",
    "Longittude": "-95.30599"
  },
  {
    "StudentId": "43697",
    "StudentName": "Aubrie Paige Randall",
    "Lattitude": "30.00515",
    "Longittude": "-95.28612"
  },
  {
    "StudentId": "53106",
    "StudentName": "Andrea Valeria Sanchez",
    "Lattitude": "30.01388",
    "Longittude": "-95.30914"
  },
  {
    "StudentId": "11217",
    "StudentName": "Jose Roberto Munoz Moya",
    "Lattitude": "29.88328",
    "Longittude": "-95.47078"
  },
  {
    "StudentId": "30663",
    "StudentName": "Shanty Joshua Orellana Aguilera",
    "Lattitude": "29.85012",
    "Longittude": "-95.4766"
  },
  {
    "StudentId": "3299",
    "StudentName": "Giselle Rodriguez Cruz",
    "Lattitude": "29.85097",
    "Longittude": "-95.47432"
  },
  {
    "StudentId": "3740",
    "StudentName": "Mariana Trevino",
    "Lattitude": "29.85367",
    "Longittude": "-95.46765"
  },
  {
    "StudentId": "30809",
    "StudentName": "Manuel Antonio Godoy Magana",
    "Lattitude": "29.85997",
    "Longittude": "-95.47606"
  },
  {
    "StudentId": "44279",
    "StudentName": "Zahid Alef Guzman Rodriguez",
    "Lattitude": "29.86382",
    "Longittude": "-95.45536"
  },
  {
    "StudentId": "6467",
    "StudentName": "Jalitza Valeria Merlos Perry",
    "Lattitude": "29.86227",
    "Longittude": "-95.4539"
  },
  {
    "StudentId": "26532",
    "StudentName": "Giovanni John-Santos Ortiz",
    "Lattitude": "29.89533",
    "Longittude": "-95.45794"
  },
  {
    "StudentId": "36103",
    "StudentName": "Emily Nicole Orellana",
    "Lattitude": "29.85673",
    "Longittude": "-95.46997"
  },
  {
    "StudentId": "66912",
    "StudentName": "Sashelin Daneiry Fredricks Meza",
    "Lattitude": "29.85997",
    "Longittude": "-95.47606"
  },
  {
    "StudentId": "63532",
    "StudentName": "Silvia Saray Vasquez",
    "Lattitude": "29.85367",
    "Longittude": "-95.46765"
  },
  {
    "StudentId": "63033",
    "StudentName": "Claudia Montesdeoca",
    "Lattitude": "29.85689",
    "Longittude": "-95.47214"
  },
  {
    "StudentId": "61559",
    "StudentName": "Dulce Pamela Lucas",
    "Lattitude": "29.94204",
    "Longittude": "-95.45592"
  },
  {
    "StudentId": "4455",
    "StudentName": "Jose Luis Fuentes",
    "Lattitude": "29.85367",
    "Longittude": "-95.46765"
  },
  {
    "StudentId": "28744",
    "StudentName": "Katherine Dayana Franco Galindo",
    "Lattitude": "29.85367",
    "Longittude": "-95.46765"
  },
  {
    "StudentId": "10124",
    "StudentName": "Marco Antonio Verduzco Macias",
    "Lattitude": "29.85162",
    "Longittude": "-95.48039"
  },
  {
    "StudentId": "41718",
    "StudentName": "Mikalah Kristianna Jalomo",
    "Lattitude": "29.85162",
    "Longittude": "-95.48039"
  },
  {
    "StudentId": "54012",
    "StudentName": "Amy Gabriela Garcia",
    "Lattitude": "29.87368",
    "Longittude": "-95.46399"
  },
  {
    "StudentId": "20804",
    "StudentName": "Andres Garcia",
    "Lattitude": "29.88405",
    "Longittude": "-95.47357"
  },
  {
    "StudentId": "49180",
    "StudentName": "Thania Esneiry Negrette",
    "Lattitude": "29.85012",
    "Longittude": "-95.4766"
  },
  {
    "StudentId": "35231",
    "StudentName": "Ivan Caleb Romero Granados",
    "Lattitude": "29.85689",
    "Longittude": "-95.47214"
  },
  {
    "StudentId": "57284",
    "StudentName": "Abel De Jesus Gonzalez Olvera",
    "Lattitude": "29.85689",
    "Longittude": "-95.47214"
  },
  {
    "StudentId": "4684",
    "StudentName": "Dylan Alfredo Anastacio",
    "Lattitude": "29.85689",
    "Longittude": "-95.47214"
  },
  {
    "StudentId": "57334",
    "StudentName": "Mya Brillith Diaz Romero",
    "Lattitude": "29.85997",
    "Longittude": "-95.47606"
  },
  {
    "StudentId": "61071",
    "StudentName": "Itzel Ariana Muro",
    "Lattitude": "29.86004",
    "Longittude": "-95.47353"
  },
  {
    "StudentId": "31924",
    "StudentName": "Joan Enmanuel Monroy Ramos",
    "Lattitude": "29.85182",
    "Longittude": "-95.48239"
  },
  {
    "StudentId": "50677",
    "StudentName": "Isla Rain Ramos",
    "Lattitude": "29.87742",
    "Longittude": "-95.48244"
  },
  {
    "StudentId": "27724",
    "StudentName": "Jeremiah Silva",
    "Lattitude": "29.87532",
    "Longittude": "-95.48527"
  },
  {
    "StudentId": "59916",
    "StudentName": "Marelyn Jackcity Jimenez",
    "Lattitude": "29.85097",
    "Longittude": "-95.47432"
  },
  {
    "StudentId": "17234",
    "StudentName": "Alyzza Jayleene Vazquez Portillo",
    "Lattitude": "29.85162",
    "Longittude": "-95.48039"
  },
  {
    "StudentId": "26587",
    "StudentName": "Madelein Soad Torres Elvir",
    "Lattitude": "29.87742",
    "Longittude": "-95.48244"
  },
  {
    "StudentId": "8460",
    "StudentName": "Scarlett Rosalina Garcia",
    "Lattitude": "29.87688",
    "Longittude": "-95.48566"
  },
  {
    "StudentId": "3796",
    "StudentName": "Angelique Yamilet Reyes",
    "Lattitude": "29.86419",
    "Longittude": "-95.47816"
  },
  {
    "StudentId": "5754",
    "StudentName": "Marilou Villegas",
    "Lattitude": "29.88616",
    "Longittude": "-95.4366"
  },
  {
    "StudentId": "30487",
    "StudentName": "Marisol Lopez",
    "Lattitude": "29.94581",
    "Longittude": "-95.30141"
  },
  {
    "StudentId": "53720",
    "StudentName": "Stephanie Michelle Lopez",
    "Lattitude": "29.87768",
    "Longittude": "-95.44007"
  },
  {
    "StudentId": "3311",
    "StudentName": "Melody Melissa Medina",
    "Lattitude": "29.87737",
    "Longittude": "-95.5045"
  },
  {
    "StudentId": "10928",
    "StudentName": "Angel Medina",
    "Lattitude": "29.87335",
    "Longittude": "-95.43725"
  },
  {
    "StudentId": "37696",
    "StudentName": "Cora Janae Frazier",
    "Lattitude": "29.905",
    "Longittude": "-95.43094"
  },
  {
    "StudentId": "6913",
    "StudentName": "Diego Tito Mejia",
    "Lattitude": "29.94904",
    "Longittude": "-95.47996"
  },
  {
    "StudentId": "29672",
    "StudentName": "Adrian Isaiah Garcia-Rosales",
    "Lattitude": "29.91285",
    "Longittude": "-95.45643"
  },
  {
    "StudentId": "68289",
    "StudentName": "Isabella McKinley Escobar",
    "Lattitude": "29.86428",
    "Longittude": "-95.45019"
  },
  {
    "StudentId": "43562",
    "StudentName": "Elias Emmanuel Cruz Portillo",
    "Lattitude": "29.88418",
    "Longittude": "-95.4868"
  },
  {
    "StudentId": "23807",
    "StudentName": "Samuel Jose Rios",
    "Lattitude": "29.87999",
    "Longittude": "-95.50607"
  },
  {
    "StudentId": "51636",
    "StudentName": "David Alberto Guardado",
    "Lattitude": "29.87816",
    "Longittude": "-95.50186"
  },
  {
    "StudentId": "48006",
    "StudentName": "Rosaisela Arredondo Rodriguez",
    "Lattitude": "29.86004",
    "Longittude": "-95.47353"
  },
  {
    "StudentId": "42023",
    "StudentName": "Daphney Angelique Ordonez Valle",
    "Lattitude": "29.85097",
    "Longittude": "-95.47432"
  },
  {
    "StudentId": "7144",
    "StudentName": "Alan Carrillo",
    "Lattitude": "29.88328",
    "Longittude": "-95.47587"
  },
  {
    "StudentId": "34002",
    "StudentName": "Gloria Nohemi Cedillo Garcia",
    "Lattitude": "29.86004",
    "Longittude": "-95.47353"
  },
  {
    "StudentId": "5932",
    "StudentName": "Grace Elizabeth Aguilar",
    "Lattitude": "29.88805",
    "Longittude": "-95.49865"
  },
  {
    "StudentId": "47702",
    "StudentName": "Nathaly Sofia Campos",
    "Lattitude": "29.84519",
    "Longittude": "-95.446"
  },
  {
    "StudentId": "62924",
    "StudentName": "Jannely Castillo",
    "Lattitude": "29.85519",
    "Longittude": "-95.46777"
  },
  {
    "StudentId": "29298",
    "StudentName": "Danna Juliet Herrera Claros",
    "Lattitude": "29.87411",
    "Longittude": "-95.50358"
  },
  {
    "StudentId": "12754",
    "StudentName": "Jaxson Amado Pineda",
    "Lattitude": "29.85162",
    "Longittude": "-95.48039"
  },
  {
    "StudentId": "30108",
    "StudentName": "Juan Andres Huerta",
    "Lattitude": "29.88884",
    "Longittude": "-95.49766"
  },
  {
    "StudentId": "6051",
    "StudentName": "Steven Daniel Garcia Marquina",
    "Lattitude": "29.86374",
    "Longittude": "-95.45978"
  },
  {
    "StudentId": "62004",
    "StudentName": "Sofia Paz Hernandez",
    "Lattitude": "29.85689",
    "Longittude": "-95.47214"
  },
  {
    "StudentId": "51381",
    "StudentName": "Yoely Gissel Aguilar Ortiz",
    "Lattitude": "29.85673",
    "Longittude": "-95.46997"
  },
  {
    "StudentId": "42144",
    "StudentName": "Bella Alondra Echeverria",
    "Lattitude": "29.88076",
    "Longittude": "-95.50252"
  },
  {
    "StudentId": "41965",
    "StudentName": "Adaya Zohar Almendarez",
    "Lattitude": "29.86434",
    "Longittude": "-95.46105"
  },
  {
    "StudentId": "44519",
    "StudentName": "Michael Jeffer Pascual",
    "Lattitude": "29.86382",
    "Longittude": "-95.45536"
  },
  {
    "StudentId": "24741",
    "StudentName": "Jennifer Ramirez",
    "Lattitude": "29.85793",
    "Longittude": "-95.46079"
  },
  {
    "StudentId": "59037",
    "StudentName": "Leo Jahir Aleman Moris",
    "Lattitude": "29.85332",
    "Longittude": "-95.46865"
  },
  {
    "StudentId": "14414",
    "StudentName": "Geraldine Andrea Canales Hernandez",
    "Lattitude": "29.86227",
    "Longittude": "-95.4539"
  },
  {
    "StudentId": "8847",
    "StudentName": "Amy Abbigail Alcantara",
    "Lattitude": "29.85367",
    "Longittude": "-95.46765"
  },
  {
    "StudentId": "53372",
    "StudentName": "Mary Faith Palacios",
    "Lattitude": "29.85462",
    "Longittude": "-95.46942"
  },
  {
    "StudentId": "62711",
    "StudentName": "Estrella Nicol Zelayandia Sagastizado",
    "Lattitude": "29.86374",
    "Longittude": "-95.45978"
  },
  {
    "StudentId": "3769",
    "StudentName": "Fernando Yair Vasquez",
    "Lattitude": "29.86382",
    "Longittude": "-95.45536"
  },
  {
    "StudentId": "64159",
    "StudentName": "Andrew Flores",
    "Lattitude": "29.86382",
    "Longittude": "-95.45536"
  },
  {
    "StudentId": "65676",
    "StudentName": "Emely Alison Vichi Hernandez",
    "Lattitude": "29.85519",
    "Longittude": "-95.46777"
  },
  {
    "StudentId": "55131",
    "StudentName": "Ashley Denisse Guevara",
    "Lattitude": "29.85519",
    "Longittude": "-95.46777"
  },
  {
    "StudentId": "20687",
    "StudentName": "Dylan Garcia Vera",
    "Lattitude": "29.92445",
    "Longittude": "-95.38707"
  },
  {
    "StudentId": "3766",
    "StudentName": "Richard Constantine Contreras",
    "Lattitude": "29.94608",
    "Longittude": "-95.39464"
  },
  {
    "StudentId": "11560",
    "StudentName": "Jasmin Elisabeth Flores Aranda",
    "Lattitude": "29.86469",
    "Longittude": "-95.44932"
  },
  {
    "StudentId": "8918",
    "StudentName": "Roy Cornelius Alcantar",
    "Lattitude": "29.92387",
    "Longittude": "-95.40548"
  },
  {
    "StudentId": "32667",
    "StudentName": "Emily Moreno",
    "Lattitude": "29.89636",
    "Longittude": "-95.45417"
  },
  {
    "StudentId": "35178",
    "StudentName": "Daniel Isaias Herrera",
    "Lattitude": "29.85531",
    "Longittude": "-95.46592"
  },
  {
    "StudentId": "23476",
    "StudentName": "Karol Garcia",
    "Lattitude": "29.90956",
    "Longittude": "-95.36462"
  },
  {
    "StudentId": "66641",
    "StudentName": "Valeria Saray Flores",
    "Lattitude": "29.85162",
    "Longittude": "-95.48039"
  },
  {
    "StudentId": "19821",
    "StudentName": "Lea Rae Torres",
    "Lattitude": "30.01961",
    "Longittude": "-95.29885"
  },
  {
    "StudentId": "67785",
    "StudentName": "Nora Berenice Reyes",
    "Lattitude": "29.92332",
    "Longittude": "-95.45123"
  },
  {
    "StudentId": "35581",
    "StudentName": "Miyari Brianna Solano",
    "Lattitude": "29.90003",
    "Longittude": "-95.45025"
  },
  {
    "StudentId": "11718",
    "StudentName": "Gabriela Castillo",
    "Lattitude": "29.91434",
    "Longittude": "-95.44427"
  },
  {
    "StudentId": "45905",
    "StudentName": "Gladiel Cabrera",
    "Lattitude": "29.88963",
    "Longittude": "-95.37785"
  },
  {
    "StudentId": "42468",
    "StudentName": "Eylin Adriana Aldana Sanchez",
    "Lattitude": "30.01017",
    "Longittude": "-95.28774"
  },
  {
    "StudentId": "35732",
    "StudentName": "Krystal Evon Salas",
    "Lattitude": "29.90758",
    "Longittude": "-95.42961"
  },
  {
    "StudentId": "33493",
    "StudentName": "Hermione Vanessa Vides",
    "Lattitude": "29.94726",
    "Longittude": "-95.39486"
  },
  {
    "StudentId": "26492",
    "StudentName": "Jose Miguel Garcia",
    "Lattitude": "29.97483",
    "Longittude": "-95.39953"
  },
  {
    "StudentId": "64449",
    "StudentName": "Micheal Anthony Reyes Jimenez",
    "Lattitude": "29.88327",
    "Longittude": "-95.35995"
  },
  {
    "StudentId": "29581",
    "StudentName": "Jailyne Garcia",
    "Lattitude": "29.8931",
    "Longittude": "-95.43389"
  },
  {
    "StudentId": "64342",
    "StudentName": "Jennifer Isidoro Gallegos",
    "Lattitude": "29.88435",
    "Longittude": "-95.44511"
  },
  {
    "StudentId": "27130",
    "StudentName": "Manuel Gomez",
    "Lattitude": "29.9483",
    "Longittude": "-95.39388"
  },
  {
    "StudentId": "26304",
    "StudentName": "Nicholas Alessandro Campos",
    "Lattitude": "29.87191",
    "Longittude": "-95.46032"
  },
  {
    "StudentId": "44911",
    "StudentName": "Jade Jimenez",
    "Lattitude": "29.88386",
    "Longittude": "-95.33549"
  },
  {
    "StudentId": "17842",
    "StudentName": "Rosa Margarita Zuniga Sanchez",
    "Lattitude": "29.94781",
    "Longittude": "-95.40516"
  },
  {
    "StudentId": "39339",
    "StudentName": "Angel Miguel Luis",
    "Lattitude": "29.93432",
    "Longittude": "-95.48929"
  },
  {
    "StudentId": "4301",
    "StudentName": "Jose David Izaguirre",
    "Lattitude": "29.92223",
    "Longittude": "-95.40344"
  },
  {
    "StudentId": "53767",
    "StudentName": "Alan Olvera",
    "Lattitude": "29.88926",
    "Longittude": "-95.50098"
  },
  {
    "StudentId": "32886",
    "StudentName": "Pedro Maya",
    "Lattitude": "29.92261",
    "Longittude": "-95.45271"
  },
  {
    "StudentId": "43904",
    "StudentName": "Zury Aridenne Ramirez",
    "Lattitude": "29.91816",
    "Longittude": "-95.37728"
  },
  {
    "StudentId": "49962",
    "StudentName": "Joymarie Angel Torres",
    "Lattitude": "29.87181",
    "Longittude": "-95.43873"
  },
  {
    "StudentId": "8411",
    "StudentName": "Mia Zofia Garza",
    "Lattitude": "29.91929",
    "Longittude": "-95.43478"
  },
  {
    "StudentId": "56580",
    "StudentName": "Camila Sarai Serrano",
    "Lattitude": "29.86514",
    "Longittude": "-95.42588"
  },
  {
    "StudentId": "49044",
    "StudentName": "Victor Rafael Gamez",
    "Lattitude": "29.91324",
    "Longittude": "-95.4566"
  },
  {
    "StudentId": "12983",
    "StudentName": "William Jared Alvarado",
    "Lattitude": "29.86736",
    "Longittude": "-95.44603"
  },
  {
    "StudentId": "50441",
    "StudentName": "Matilde Elizabeth Mayorga-Real",
    "Lattitude": "30.014",
    "Longittude": "-95.29895"
  },
  {
    "StudentId": "35591",
    "StudentName": "Jesus Giovanni Mejia",
    "Lattitude": "29.94904",
    "Longittude": "-95.47996"
  },
  {
    "StudentId": "42842",
    "StudentName": "Mextli Citlali Pineda Miranda",
    "Lattitude": "29.88405",
    "Longittude": "-95.47357"
  },
  {
    "StudentId": "16560",
    "StudentName": "Marlon Daniel Salandia",
    "Lattitude": "29.87114",
    "Longittude": "-95.4644"
  },
  {
    "StudentId": "22389",
    "StudentName": "Emily Montserrat Moreno",
    "Lattitude": "29.87649",
    "Longittude": "-95.45913"
  },
  {
    "StudentId": "53469",
    "StudentName": "Andre Hamir Aranda",
    "Lattitude": "29.8841",
    "Longittude": "-95.46871"
  },
  {
    "StudentId": "31854",
    "StudentName": "Enyell Anselmo Avila Colon",
    "Lattitude": "29.87829",
    "Longittude": "-95.45237"
  },
  {
    "StudentId": "62466",
    "StudentName": "Alisson Yareth Ponce",
    "Lattitude": "29.88917",
    "Longittude": "-95.44831"
  },
  {
    "StudentId": "51511",
    "StudentName": "Dayani Martinez Gutierrez",
    "Lattitude": "29.88354",
    "Longittude": "-95.46675"
  },
  {
    "StudentId": "25510",
    "StudentName": "Angeles Nazaret Veliz Barrios",
    "Lattitude": "29.88213",
    "Longittude": "-95.46619"
  },
  {
    "StudentId": "30419",
    "StudentName": "Yovanni Arreola-Gutierrez",
    "Lattitude": "29.88865",
    "Longittude": "-95.44392"
  },
  {
    "StudentId": "37048",
    "StudentName": "Daniel Alcides Alvarado Hernandez",
    "Lattitude": "29.88036",
    "Longittude": "-95.46181"
  },
  {
    "StudentId": "31114",
    "StudentName": "Akiane Isabel Salazar",
    "Lattitude": "29.88737",
    "Longittude": "-95.43446"
  },
  {
    "StudentId": "14520",
    "StudentName": "Alejandra Patricia Silva Castro",
    "Lattitude": "29.89649",
    "Longittude": "-95.45546"
  },
  {
    "StudentId": "51681",
    "StudentName": "Santhiago Martinez Barrera",
    "Lattitude": "29.88435",
    "Longittude": "-95.47077"
  },
  {
    "StudentId": "42897",
    "StudentName": "Maritza Ximena Barahona",
    "Lattitude": "29.87448",
    "Longittude": "-95.46187"
  },
  {
    "StudentId": "33188",
    "StudentName": "Melanie Josephine Cabanas",
    "Lattitude": "29.89036",
    "Longittude": "-95.44108"
  },
  {
    "StudentId": "44264",
    "StudentName": "Christopher Uriel Yii",
    "Lattitude": "29.92399",
    "Longittude": "-95.4629"
  },
  {
    "StudentId": "65486",
    "StudentName": "Jonathan Gael Servin Paz",
    "Lattitude": "29.88618",
    "Longittude": "-95.43547"
  },
  {
    "StudentId": "31992",
    "StudentName": "Brianna Eyleen Montes",
    "Lattitude": "29.89208",
    "Longittude": "-95.43388"
  },
  {
    "StudentId": "64427",
    "StudentName": "Marco Luis Morin",
    "Lattitude": "29.89576",
    "Longittude": "-95.45755"
  },
  {
    "StudentId": "24575",
    "StudentName": "Gabriel Soto Vera",
    "Lattitude": "29.88942",
    "Longittude": "-95.42869"
  },
  {
    "StudentId": "9827",
    "StudentName": "Jorge Alberto Lara",
    "Lattitude": "29.89082",
    "Longittude": "-95.43848"
  },
  {
    "StudentId": "64057",
    "StudentName": "Jonathan Guzman",
    "Lattitude": "29.87955",
    "Longittude": "-95.4582"
  },
  {
    "StudentId": "20310",
    "StudentName": "Angel Alexander Velasquez",
    "Lattitude": "29.8891",
    "Longittude": "-95.42452"
  },
  {
    "StudentId": "9802",
    "StudentName": "Geronimo Ricky Vasquez",
    "Lattitude": "29.87281",
    "Longittude": "-95.46398"
  },
  {
    "StudentId": "29896",
    "StudentName": "William Alexander Carrillo Ayala",
    "Lattitude": "29.88662",
    "Longittude": "-95.43778"
  },
  {
    "StudentId": "23484",
    "StudentName": "Christopher Cabello",
    "Lattitude": "29.89036",
    "Longittude": "-95.44108"
  },
  {
    "StudentId": "55817",
    "StudentName": "Christopher David Luna",
    "Lattitude": "29.91957",
    "Longittude": "-95.45106"
  },
  {
    "StudentId": "62452",
    "StudentName": "Jayden Abiel Castro",
    "Lattitude": "29.88328",
    "Longittude": "-95.47078"
  },
  {
    "StudentId": "46677",
    "StudentName": "Edgar Ivan Lopez Martinez",
    "Lattitude": "29.86374",
    "Longittude": "-95.45978"
  },
  {
    "StudentId": "44620",
    "StudentName": "Precious Alizae Linares",
    "Lattitude": "29.85012",
    "Longittude": "-95.4766"
  },
  {
    "StudentId": "48673",
    "StudentName": "Mario Jose Flores Fernandez",
    "Lattitude": "29.86004",
    "Longittude": "-95.47353"
  },
  {
    "StudentId": "64637",
    "StudentName": "Michelle Mendez",
    "Lattitude": "29.86183",
    "Longittude": "-95.45042"
  },
  {
    "StudentId": "39807",
    "StudentName": "Heriberto Loredo Morales",
    "Lattitude": "29.88706",
    "Longittude": "-95.42885"
  },
  {
    "StudentId": "18006",
    "StudentName": "Jordi Ivan Gallardo",
    "Lattitude": "29.88435",
    "Longittude": "-95.47077"
  },
  {
    "StudentId": "20299",
    "StudentName": "Ozler Cuellar",
    "Lattitude": "29.89845",
    "Longittude": "-95.44512"
  },
  {
    "StudentId": "39583",
    "StudentName": "Brando Jaffet Aguilar",
    "Lattitude": "29.86004",
    "Longittude": "-95.47353"
  },
  {
    "StudentId": "13285",
    "StudentName": "Erik Alexander Franco",
    "Lattitude": "29.89359",
    "Longittude": "-95.42882"
  },
  {
    "StudentId": "37342",
    "StudentName": "Yulisa Elizabeth Angel",
    "Lattitude": "29.90433",
    "Longittude": "-95.45544"
  },
  {
    "StudentId": "66923",
    "StudentName": "Daysy Sabina Garcia",
    "Lattitude": "29.85436",
    "Longittude": "-95.46765"
  },
  {
    "StudentId": "68246",
    "StudentName": "Bethany Michelle Lopez",
    "Lattitude": "29.90347",
    "Longittude": "-95.45808"
  },
  {
    "StudentId": "7300",
    "StudentName": "Javian Alexander Yerena",
    "Lattitude": "29.9158",
    "Longittude": "-95.45603"
  },
  {
    "StudentId": "49674",
    "StudentName": "Jocelyn Maldonado Valdez",
    "Lattitude": "29.89421",
    "Longittude": "-95.45679"
  },
  {
    "StudentId": "46348",
    "StudentName": "Lipsie Jackeline Torres-Martinez",
    "Lattitude": "29.85997",
    "Longittude": "-95.47606"
  },
  {
    "StudentId": "57955",
    "StudentName": "Jackie Kassandra Perez",
    "Lattitude": "29.87172",
    "Longittude": "-95.48986"
  },
  {
    "StudentId": "40039",
    "StudentName": "Jose Gilberto Alvarez",
    "Lattitude": "29.85551",
    "Longittude": "-95.44699"
  },
  {
    "StudentId": "63322",
    "StudentName": "Jesus Ramirez",
    "Lattitude": "29.87078",
    "Longittude": "-95.4654"
  },
  {
    "StudentId": "34884",
    "StudentName": "Elizabeth Martin Galindo",
    "Lattitude": "29.89165",
    "Longittude": "-95.43266"
  },
  {
    "StudentId": "46859",
    "StudentName": "Veronica Guadalupe Corona",
    "Lattitude": "29.85012",
    "Longittude": "-95.4766"
  },
  {
    "StudentId": "11742",
    "StudentName": "Amanda Yvette Facundo Lopez",
    "Lattitude": "29.88625",
    "Longittude": "-95.49642"
  },
  {
    "StudentId": "47002",
    "StudentName": "Wilfred Narvaez",
    "Lattitude": "29.87565",
    "Longittude": "-95.45898"
  },
  {
    "StudentId": "44288",
    "StudentName": "Bryan Gutierrez",
    "Lattitude": "29.92261",
    "Longittude": "-95.45271"
  },
  {
    "StudentId": "42136",
    "StudentName": "Jair Alexander Lopez Lopez",
    "Lattitude": "29.89036",
    "Longittude": "-95.44108"
  },
  {
    "StudentId": "35496",
    "StudentName": "Ismael Vazquez Ortega",
    "Lattitude": "29.9072",
    "Longittude": "-95.45954"
  },
  {
    "StudentId": "64975",
    "StudentName": "Melonie Jade Guardiola",
    "Lattitude": "29.90495",
    "Longittude": "-95.46021"
  },
  {
    "StudentId": "63956",
    "StudentName": "Kimberly Barrera",
    "Lattitude": "29.88435",
    "Longittude": "-95.47077"
  },
  {
    "StudentId": "4842",
    "StudentName": "Alejandra Tatiana Nunez Franco",
    "Lattitude": "29.88863",
    "Longittude": "-95.44468"
  },
  {
    "StudentId": "24994",
    "StudentName": "Gerson Daniel Zarate Ramirez",
    "Lattitude": "29.87836",
    "Longittude": "-95.506"
  },
  {
    "StudentId": "32462",
    "StudentName": "Rogelio Trigo",
    "Lattitude": "29.90641",
    "Longittude": "-95.46342"
  },
  {
    "StudentId": "47203",
    "StudentName": "Erika Marisol Hernandez",
    "Lattitude": "29.88883",
    "Longittude": "-95.49804"
  },
  {
    "StudentId": "37132",
    "StudentName": "Samantha Judith Juarez",
    "Lattitude": "29.89153",
    "Longittude": "-95.4395"
  },
  {
    "StudentId": "21860",
    "StudentName": "Guillermo Enrique Villa",
    "Lattitude": "29.89719",
    "Longittude": "-95.45127"
  },
  {
    "StudentId": "51835",
    "StudentName": "Alondra Mata",
    "Lattitude": "29.89845",
    "Longittude": "-95.44512"
  },
  {
    "StudentId": "46059",
    "StudentName": "Kirleen Alexa Rodriguez",
    "Lattitude": "29.9073",
    "Longittude": "-95.45033"
  },
  {
    "StudentId": "29077",
    "StudentName": "Dayana Guadalupe Mejia",
    "Lattitude": "29.87957",
    "Longittude": "-95.46111"
  },
  {
    "StudentId": "16239",
    "StudentName": "Osvany Perez",
    "Lattitude": "29.87564",
    "Longittude": "-95.50546"
  },
  {
    "StudentId": "52091",
    "StudentName": "Aaron Mata",
    "Lattitude": "29.89057",
    "Longittude": "-95.43697"
  },
  {
    "StudentId": "25830",
    "StudentName": "Ashley Vanessa Herebia",
    "Lattitude": "29.885",
    "Longittude": "-95.50616"
  },
  {
    "StudentId": "68474",
    "StudentName": "Dominic Benjamin De La Cruz",
    "Lattitude": "29.91761",
    "Longittude": "-95.48339"
  },
  {
    "StudentId": "25407",
    "StudentName": "Daisy Judith Alvarado",
    "Lattitude": "29.8841",
    "Longittude": "-95.46871"
  },
  {
    "StudentId": "52905",
    "StudentName": "Emmely Dennyse Trinidad",
    "Lattitude": "29.87742",
    "Longittude": "-95.48244"
  },
  {
    "StudentId": "55170",
    "StudentName": "Ariel Efrain Garcia",
    "Lattitude": "29.85928",
    "Longittude": "-95.47238"
  },
  {
    "StudentId": "11770",
    "StudentName": "Melvyn Yovany Carbajal Rosales",
    "Lattitude": "29.85367",
    "Longittude": "-95.46765"
  },
  {
    "StudentId": "4892",
    "StudentName": "Alexa Marie Moreno",
    "Lattitude": "29.85519",
    "Longittude": "-95.46777"
  },
  {
    "StudentId": "44796",
    "StudentName": "Diana Lizeth Morin",
    "Lattitude": "29.89532",
    "Longittude": "-95.45326"
  },
  {
    "StudentId": "3627",
    "StudentName": "Dulce Alexandra Echeverria Niz",
    "Lattitude": "29.88213",
    "Longittude": "-95.46619"
  },
  {
    "StudentId": "65780",
    "StudentName": "Heidi Nicole Jolie Hinojosa",
    "Lattitude": "29.85012",
    "Longittude": "-95.4766"
  },
  {
    "StudentId": "9220",
    "StudentName": "Diego Arredondo",
    "Lattitude": "29.89845",
    "Longittude": "-95.44512"
  },
  {
    "StudentId": "40238",
    "StudentName": "Franklin Josue Rivera Aguirre",
    "Lattitude": "29.88435",
    "Longittude": "-95.47077"
  },
  {
    "StudentId": "68493",
    "StudentName": "Elsy Abigail Bustillo",
    "Lattitude": "29.91889",
    "Longittude": "-95.45119"
  },
  {
    "StudentId": "28662",
    "StudentName": "Asthryd Nicole Franco",
    "Lattitude": "29.85997",
    "Longittude": "-95.47606"
  },
  {
    "StudentId": "56883",
    "StudentName": "Nelson Eduardo Castro Estrada",
    "Lattitude": "29.86004",
    "Longittude": "-95.47353"
  },
  {
    "StudentId": "7290",
    "StudentName": "Hector Guerrero",
    "Lattitude": "29.8716",
    "Longittude": "-95.46274"
  },
  {
    "StudentId": "38498",
    "StudentName": "Miriam Abigail Oliva",
    "Lattitude": "29.85012",
    "Longittude": "-95.4766"
  },
  {
    "StudentId": "51897",
    "StudentName": "Emeli Esmeralda Cruz",
    "Lattitude": "29.89845",
    "Longittude": "-95.44512"
  },
  {
    "StudentId": "45745",
    "StudentName": "Amy Arely Fuentes",
    "Lattitude": "29.89364",
    "Longittude": "-95.43541"
  },
  {
    "StudentId": "35309",
    "StudentName": "Joshua Rodriguez",
    "Lattitude": "29.89481",
    "Longittude": "-95.45122"
  },
  {
    "StudentId": "23410",
    "StudentName": "Iliana Esmeralda Lazo",
    "Lattitude": "29.89218",
    "Longittude": "-95.45498"
  },
  {
    "StudentId": "58282",
    "StudentName": "Gisselle Ivania Escobar Guzman",
    "Lattitude": "29.88743",
    "Longittude": "-95.43389"
  },
  {
    "StudentId": "18817",
    "StudentName": "Katherine Giselle Lagos",
    "Lattitude": "29.88971",
    "Longittude": "-95.43727"
  },
  {
    "StudentId": "17758",
    "StudentName": "Osvaldo Gabriel Lopez",
    "Lattitude": "29.85531",
    "Longittude": "-95.46592"
  },
  {
    "StudentId": "64379",
    "StudentName": "Giselle Ester Martinez Rivera",
    "Lattitude": "29.87469",
    "Longittude": "-95.50433"
  },
  {
    "StudentId": "55832",
    "StudentName": "Thomas Roberto Arriaga Macareno",
    "Lattitude": "29.88621",
    "Longittude": "-95.49915"
  },
  {
    "StudentId": "48265",
    "StudentName": "Jaylah Perla Panameno",
    "Lattitude": "29.88686",
    "Longittude": "-95.5017"
  },
  {
    "StudentId": "26344",
    "StudentName": "Amy Mendez",
    "Lattitude": "29.88387",
    "Longittude": "-95.48682"
  },
  {
    "StudentId": "21611",
    "StudentName": "Abrahan Franklin Castellanos Iglesias",
    "Lattitude": "29.87956",
    "Longittude": "-95.5008"
  },
  {
    "StudentId": "3641",
    "StudentName": "Bella Marie Espino",
    "Lattitude": "29.8871",
    "Longittude": "-95.5052"
  },
  {
    "StudentId": "16732",
    "StudentName": "Isai Emanuel Alvarez",
    "Lattitude": "29.88255",
    "Longittude": "-95.4863"
  },
  {
    "StudentId": "55172",
    "StudentName": "Ernesto Julian Garcia",
    "Lattitude": "29.87691",
    "Longittude": "-95.50145"
  },
  {
    "StudentId": "41963",
    "StudentName": "Joseph Ray Carson",
    "Lattitude": "29.87107",
    "Longittude": "-95.48854"
  },
  {
    "StudentId": "22975",
    "StudentName": "Brianna Sustaita",
    "Lattitude": "29.88841",
    "Longittude": "-95.50169"
  },
  {
    "StudentId": "58707",
    "StudentName": "Ariana Jailiene Gomez Villatoro",
    "Lattitude": "29.87577",
    "Longittude": "-95.50635"
  },
  {
    "StudentId": "57430",
    "StudentName": "Yolanda Karilyn Aranda de Paz",
    "Lattitude": "29.88604",
    "Longittude": "-95.50446"
  },
  {
    "StudentId": "51927",
    "StudentName": "Adrian Lamas",
    "Lattitude": "29.86969",
    "Longittude": "-95.48711"
  },
  {
    "StudentId": "35993",
    "StudentName": "Aileen Alejandra Garcia-Rodriguez",
    "Lattitude": "29.87388",
    "Longittude": "-95.48875"
  },
  {
    "StudentId": "30968",
    "StudentName": "Julieta Giselle Guerra",
    "Lattitude": "29.88453",
    "Longittude": "-95.48843"
  },
  {
    "StudentId": "5727",
    "StudentName": "Maquir Daniel Romero",
    "Lattitude": "29.88313",
    "Longittude": "-95.50156"
  },
  {
    "StudentId": "22485",
    "StudentName": "Rosalynn Amari Sanchez",
    "Lattitude": "29.88071",
    "Longittude": "-95.34097"
  },
  {
    "StudentId": "15877",
    "StudentName": "William Velasquez-Hernandez",
    "Lattitude": "29.88556",
    "Longittude": "-95.33525"
  },
  {
    "StudentId": "49886",
    "StudentName": "Galilea Dominguez",
    "Lattitude": "29.88351",
    "Longittude": "-95.34073"
  },
  {
    "StudentId": "21281",
    "StudentName": "Emmanuel Espinoza",
    "Lattitude": "29.88123",
    "Longittude": "-95.33209"
  },
  {
    "StudentId": "19109",
    "StudentName": "Valentina Castillo",
    "Lattitude": "29.8821",
    "Longittude": "-95.33309"
  },
  {
    "StudentId": "34000",
    "StudentName": "Jocelyn Candelaria Reyes",
    "Lattitude": "29.88579",
    "Longittude": "-95.35984"
  },
  {
    "StudentId": "55853",
    "StudentName": "Aaliyah Aguilar",
    "Lattitude": "29.88248",
    "Longittude": "-95.34665"
  },
  {
    "StudentId": "66616",
    "StudentName": "Xavier Iracheta",
    "Lattitude": "29.88791",
    "Longittude": "-95.35147"
  },
  {
    "StudentId": "16441",
    "StudentName": "Easton Orlando Carrillo",
    "Lattitude": "29.88101",
    "Longittude": "-95.34922"
  },
  {
    "StudentId": "68334",
    "StudentName": "Alberto Abonza",
    "Lattitude": "29.88148",
    "Longittude": "-95.35904"
  },
  {
    "StudentId": "6791",
    "StudentName": "Eric Ethan Chavira",
    "Lattitude": "29.88211",
    "Longittude": "-95.33994"
  },
  {
    "StudentId": "62051",
    "StudentName": "Esteban Gabriel Baltazar",
    "Lattitude": "29.88396",
    "Longittude": "-95.35936"
  },
  {
    "StudentId": "43122",
    "StudentName": "Savannah Ann Vidaurri",
    "Lattitude": "29.88797",
    "Longittude": "-95.33664"
  },
  {
    "StudentId": "58705",
    "StudentName": "Delilah Aliese Stevenson-Rubio",
    "Lattitude": "29.88387",
    "Longittude": "-95.33349"
  },
  {
    "StudentId": "65279",
    "StudentName": "Yarlet Jazmin Martinez",
    "Lattitude": "29.88438",
    "Longittude": "-95.34073"
  },
  {
    "StudentId": "53046",
    "StudentName": "Aaron Michael Nickolas Leija",
    "Lattitude": "29.88382",
    "Longittude": "-95.35276"
  },
  {
    "StudentId": "21342",
    "StudentName": "Dave Perez",
    "Lattitude": "29.88021",
    "Longittude": "-95.35388"
  },
  {
    "StudentId": "11951",
    "StudentName": "Amy Marlene Reyes",
    "Lattitude": "29.88147",
    "Longittude": "-95.36069"
  },
  {
    "StudentId": "24426",
    "StudentName": "Riley Juliann Garamillo",
    "Lattitude": "29.88097",
    "Longittude": "-95.3523"
  },
  {
    "StudentId": "54129",
    "StudentName": "Angel Geovanny Sanchez Castillo",
    "Lattitude": "29.887",
    "Longittude": "-95.34076"
  },
  {
    "StudentId": "68285",
    "StudentName": "Karli Irene Gonzalez",
    "Lattitude": "29.88386",
    "Longittude": "-95.3345"
  },
  {
    "StudentId": "30552",
    "StudentName": "Amanda Alfaro",
    "Lattitude": "29.8835",
    "Longittude": "-95.33636"
  },
  {
    "StudentId": "55177",
    "StudentName": "Kimberly Nathalia Morales Alvarez",
    "Lattitude": "29.89201",
    "Longittude": "-95.39744"
  },
  {
    "StudentId": "59612",
    "StudentName": "Adrian Hugo Montalvan",
    "Lattitude": "29.90427",
    "Longittude": "-95.40643"
  },
  {
    "StudentId": "20228",
    "StudentName": "Jose Antonio Hernandez",
    "Lattitude": "29.89187",
    "Longittude": "-95.39612"
  },
  {
    "StudentId": "59244",
    "StudentName": "Bryan Ramirez Roque",
    "Lattitude": "29.89464",
    "Longittude": "-95.40546"
  },
  {
    "StudentId": "23811",
    "StudentName": "Isai Rendon",
    "Lattitude": "29.89322",
    "Longittude": "-95.4064"
  },
  {
    "StudentId": "11607",
    "StudentName": "Alfredo Mejia",
    "Lattitude": "29.8889",
    "Longittude": "-95.39114"
  },
  {
    "StudentId": "39847",
    "StudentName": "Raelyn Aniz Juanes",
    "Lattitude": "29.89344",
    "Longittude": "-95.40755"
  },
  {
    "StudentId": "45522",
    "StudentName": "Brianna Daleyza Payan Cerrato",
    "Lattitude": "29.89801",
    "Longittude": "-95.40721"
  },
  {
    "StudentId": "28677",
    "StudentName": "Kelly Joana Parra",
    "Lattitude": "29.88722",
    "Longittude": "-95.40087"
  },
  {
    "StudentId": "42845",
    "StudentName": "Sophia Annabella Briz",
    "Lattitude": "29.90172",
    "Longittude": "-95.40557"
  },
  {
    "StudentId": "23541",
    "StudentName": "Stephany Guadalupe Castillo",
    "Lattitude": "29.89201",
    "Longittude": "-95.39744"
  },
  {
    "StudentId": "63587",
    "StudentName": "Nevaeh Rose Vasquez",
    "Lattitude": "29.90481",
    "Longittude": "-95.40833"
  },
  {
    "StudentId": "5375",
    "StudentName": "Angie Fabiana Ortez",
    "Lattitude": "29.9258",
    "Longittude": "-95.4023"
  },
  {
    "StudentId": "11944",
    "StudentName": "Alexis Herrera Verdusco",
    "Lattitude": "29.89187",
    "Longittude": "-95.39612"
  },
  {
    "StudentId": "23662",
    "StudentName": "Johan Emmanuel Carrillo",
    "Lattitude": "29.90613",
    "Longittude": "-95.40814"
  },
  {
    "StudentId": "59271",
    "StudentName": "Nathaly Ailyn Andino",
    "Lattitude": "29.89066",
    "Longittude": "-95.40184"
  },
  {
    "StudentId": "48041",
    "StudentName": "Alexia Abigail Sanchez",
    "Lattitude": "29.89395",
    "Longittude": "-95.40032"
  },
  {
    "StudentId": "51368",
    "StudentName": "Franklin Jefferson Rodriquez",
    "Lattitude": "29.9029",
    "Longittude": "-95.40808"
  },
  {
    "StudentId": "41357",
    "StudentName": "Jaime Martinez",
    "Lattitude": "29.89172",
    "Longittude": "-95.40676"
  },
  {
    "StudentId": "6385",
    "StudentName": "Francis Victoria Elizabeth Luna",
    "Lattitude": "29.90361",
    "Longittude": "-95.40694"
  },
  {
    "StudentId": "55222",
    "StudentName": "Luna Valerie Chavez",
    "Lattitude": "29.88968",
    "Longittude": "-95.40421"
  },
  {
    "StudentId": "30129",
    "StudentName": "Kimberlin Joslyn Gonzales Rivas",
    "Lattitude": "29.89201",
    "Longittude": "-95.39744"
  },
  {
    "StudentId": "46013",
    "StudentName": "Karen Alexa Espino",
    "Lattitude": "29.87547",
    "Longittude": "-95.3201"
  },
  {
    "StudentId": "26339",
    "StudentName": "Marcella Caballero",
    "Lattitude": "29.87597",
    "Longittude": "-95.32259"
  },
  {
    "StudentId": "26476",
    "StudentName": "Anthony Lopez",
    "Lattitude": "29.87555",
    "Longittude": "-95.32597"
  },
  {
    "StudentId": "40562",
    "StudentName": "Madison Toscano",
    "Lattitude": "29.87399",
    "Longittude": "-95.32072"
  },
  {
    "StudentId": "67639",
    "StudentName": "Jacqueline Vazquez Borja",
    "Lattitude": "29.889",
    "Longittude": "-95.30885"
  },
  {
    "StudentId": "33861",
    "StudentName": "Liam Figueroa",
    "Lattitude": "29.87833",
    "Longittude": "-95.31293"
  },
  {
    "StudentId": "11982",
    "StudentName": "Elodio Angel Manzanares",
    "Lattitude": "29.87901",
    "Longittude": "-95.32339"
  },
  {
    "StudentId": "3642",
    "StudentName": "Alan Garcia",
    "Lattitude": "29.87377",
    "Longittude": "-95.32316"
  },
  {
    "StudentId": "65603",
    "StudentName": "Aalyiah Belle Valdez",
    "Lattitude": "29.88",
    "Longittude": "-95.32129"
  },
  {
    "StudentId": "45280",
    "StudentName": "Nicole Valentina Torres",
    "Lattitude": "29.87563",
    "Longittude": "-95.32392"
  },
  {
    "StudentId": "64490",
    "StudentName": "Hannsel Gazga",
    "Lattitude": "29.87884",
    "Longittude": "-95.31779"
  },
  {
    "StudentId": "53606",
    "StudentName": "Guelcy Sophia Macias",
    "Lattitude": "29.88705",
    "Longittude": "-95.3184"
  },
  {
    "StudentId": "40905",
    "StudentName": "Angel Vicente",
    "Lattitude": "29.85873",
    "Longittude": "-95.32864"
  },
  {
    "StudentId": "13519",
    "StudentName": "Enjoli Adele Padierna",
    "Lattitude": "29.85247",
    "Longittude": "-95.33043"
  },
  {
    "StudentId": "10930",
    "StudentName": "Itati Noeli Rodriguez",
    "Lattitude": "29.85958",
    "Longittude": "-95.3226"
  },
  {
    "StudentId": "52312",
    "StudentName": "Vanessa Acuna",
    "Lattitude": "29.84222",
    "Longittude": "-95.32803"
  },
  {
    "StudentId": "58299",
    "StudentName": "Maximus Cross DeLeon",
    "Lattitude": "29.85481",
    "Longittude": "-95.32809"
  },
  {
    "StudentId": "25886",
    "StudentName": "Luna Abigail Vega",
    "Lattitude": "29.8577",
    "Longittude": "-95.33145"
  },
  {
    "StudentId": "58296",
    "StudentName": "Jose Joel Vallejo",
    "Lattitude": "29.85811",
    "Longittude": "-95.32492"
  },
  {
    "StudentId": "58493",
    "StudentName": "Alejandra Catalina Perez",
    "Lattitude": "29.85612",
    "Longittude": "-95.32801"
  },
  {
    "StudentId": "35559",
    "StudentName": "Jonathan Omar Velasquez",
    "Lattitude": "29.87817",
    "Longittude": "-95.32063"
  },
  {
    "StudentId": "23140",
    "StudentName": "Juana Saraley Munoz",
    "Lattitude": "29.85984",
    "Longittude": "-95.32576"
  },
  {
    "StudentId": "60966",
    "StudentName": "Alejandra Renteria Sanchez",
    "Lattitude": "29.85514",
    "Longittude": "-95.32438"
  },
  {
    "StudentId": "56892",
    "StudentName": "Keily Mary Duron",
    "Lattitude": "29.85371",
    "Longittude": "-95.32446"
  },
  {
    "StudentId": "3989",
    "StudentName": "Gael Lorenzo Puentes",
    "Lattitude": "29.87918",
    "Longittude": "-95.31925"
  },
  {
    "StudentId": "45137",
    "StudentName": "Michael Vazquez",
    "Lattitude": "29.89496",
    "Longittude": "-95.30717"
  },
  {
    "StudentId": "41097",
    "StudentName": "Claire Genesis Ibarra",
    "Lattitude": "29.90688",
    "Longittude": "-95.32557"
  },
  {
    "StudentId": "49835",
    "StudentName": "Nallely Nevaeh Garcia",
    "Lattitude": "29.87305",
    "Longittude": "-95.32034"
  },
  {
    "StudentId": "50584",
    "StudentName": "Enrique Calderon",
    "Lattitude": "29.87554",
    "Longittude": "-95.31907"
  },
  {
    "StudentId": "24762",
    "StudentName": "Connie Merayah'lou Negrete",
    "Lattitude": "29.90316",
    "Longittude": "-95.32963"
  },
  {
    "StudentId": "30822",
    "StudentName": "Nickyangela Sanchez Villanueva",
    "Lattitude": "29.87879",
    "Longittude": "-95.31465"
  },
  {
    "StudentId": "17919",
    "StudentName": "Amalie Gisselle Ortiz",
    "Lattitude": "29.87802",
    "Longittude": "-95.31395"
  },
  {
    "StudentId": "29325",
    "StudentName": "Jack Daniel Mendez Ravalcaba",
    "Lattitude": "29.87515",
    "Longittude": "-95.3208"
  },
  {
    "StudentId": "25528",
    "StudentName": "Jalyse Audraya Tubbs",
    "Lattitude": "29.85481",
    "Longittude": "-95.32527"
  },
  {
    "StudentId": "57644",
    "StudentName": "Ezra Santiago Lopez",
    "Lattitude": "29.87594",
    "Longittude": "-95.31811"
  },
  {
    "StudentId": "5256",
    "StudentName": "Suleima Gisselle Sosa Gutierrez",
    "Lattitude": "29.87814",
    "Longittude": "-95.3225"
  },
  {
    "StudentId": "18518",
    "StudentName": "Jada Anahi Aguilar",
    "Lattitude": "29.87753",
    "Longittude": "-95.31297"
  },
  {
    "StudentId": "45597",
    "StudentName": "Luis Angel Rivera",
    "Lattitude": "29.88081",
    "Longittude": "-95.31719"
  },
  {
    "StudentId": "26409",
    "StudentName": "Joshua Interiano",
    "Lattitude": "29.87943",
    "Longittude": "-95.31976"
  },
  {
    "StudentId": "19994",
    "StudentName": "Keyli Duarte Plancarte",
    "Lattitude": "29.87918",
    "Longittude": "-95.31528"
  },
  {
    "StudentId": "24075",
    "StudentName": "Jesus Guadalupe De Leon",
    "Lattitude": "29.90461",
    "Longittude": "-95.3287"
  },
  {
    "StudentId": "23154",
    "StudentName": "Noah Edwin Gallardo",
    "Lattitude": "29.89213",
    "Longittude": "-95.30721"
  },
  {
    "StudentId": "61473",
    "StudentName": "Jair Calderon",
    "Lattitude": "29.85583",
    "Longittude": "-95.33093"
  },
  {
    "StudentId": "58602",
    "StudentName": "Jayden Emilio Escobedo",
    "Lattitude": "29.87551",
    "Longittude": "-95.32626"
  },
  {
    "StudentId": "34008",
    "StudentName": "Scarlett Arellano-Mondragon",
    "Lattitude": "29.90757",
    "Longittude": "-95.32916"
  },
  {
    "StudentId": "10044",
    "StudentName": "Juan Carlos Silva",
    "Lattitude": "29.87651",
    "Longittude": "-95.31801"
  },
  {
    "StudentId": "33616",
    "StudentName": "Wesley Daniel Mangandi",
    "Lattitude": "29.90869",
    "Longittude": "-95.30738"
  },
  {
    "StudentId": "26524",
    "StudentName": "Mateo Romero",
    "Lattitude": "29.9275",
    "Longittude": "-95.28694"
  },
  {
    "StudentId": "33210",
    "StudentName": "Francisco Aguilar",
    "Lattitude": "29.97602",
    "Longittude": "-95.22252"
  },
  {
    "StudentId": "64972",
    "StudentName": "Alizay Jaylene Almanza",
    "Lattitude": "29.89132",
    "Longittude": "-95.42505"
  },
  {
    "StudentId": "44263",
    "StudentName": "Exsyss Abella Blanco",
    "Lattitude": "29.89352",
    "Longittude": "-95.43304"
  },
  {
    "StudentId": "35208",
    "StudentName": "Jennifer Michelle Vargas",
    "Lattitude": "29.88876",
    "Longittude": "-95.44651"
  },
  {
    "StudentId": "64944",
    "StudentName": "Adrianna Jewelz Rojas",
    "Lattitude": "29.91287",
    "Longittude": "-95.4561"
  },
  {
    "StudentId": "11556",
    "StudentName": "Randy Vela Rodriguez",
    "Lattitude": "29.87026",
    "Longittude": "-95.4883"
  },
  {
    "StudentId": "63851",
    "StudentName": "Genesis Flores",
    "Lattitude": "29.89504",
    "Longittude": "-95.45181"
  },
  {
    "StudentId": "32221",
    "StudentName": "Alejandro Alfaro",
    "Lattitude": "29.88998",
    "Longittude": "-95.50193"
  },
  {
    "StudentId": "8249",
    "StudentName": "Ximena Villa",
    "Lattitude": "29.89719",
    "Longittude": "-95.45127"
  },
  {
    "StudentId": "24127",
    "StudentName": "Clarisa Rashiel Verdin Espinoza",
    "Lattitude": "29.92261",
    "Longittude": "-95.45271"
  },
  {
    "StudentId": "42473",
    "StudentName": "Anthony Manriquez",
    "Lattitude": "29.92419",
    "Longittude": "-95.45286"
  },
  {
    "StudentId": "65401",
    "StudentName": "Sebastian Vladimir Ramirez",
    "Lattitude": "29.92476",
    "Longittude": "-95.4512"
  },
  {
    "StudentId": "28360",
    "StudentName": "Celeste Garcia Taguja",
    "Lattitude": "29.89036",
    "Longittude": "-95.44108"
  },
  {
    "StudentId": "42854",
    "StudentName": "Yaisa Naomi Candanosa",
    "Lattitude": "29.88652",
    "Longittude": "-95.49879"
  },
  {
    "StudentId": "49525",
    "StudentName": "Joan Elian Rangel",
    "Lattitude": "29.92697",
    "Longittude": "-95.45587"
  },
  {
    "StudentId": "46840",
    "StudentName": "Martha Alicia Mata-Melchor",
    "Lattitude": "29.91804",
    "Longittude": "-95.4539"
  },
  {
    "StudentId": "28926",
    "StudentName": "Julian Valenzuela",
    "Lattitude": "29.87789",
    "Longittude": "-95.45715"
  },
  {
    "StudentId": "53309",
    "StudentName": "Cristian Noe Pacheco",
    "Lattitude": "29.87773",
    "Longittude": "-95.49923"
  },
  {
    "StudentId": "49150",
    "StudentName": "Egberth Yoseth Aguilar Galvez",
    "Lattitude": "29.87691",
    "Longittude": "-95.46014"
  },
  {
    "StudentId": "33915",
    "StudentName": "Gary Alexander Duran",
    "Lattitude": "29.88811",
    "Longittude": "-95.50607"
  },
  {
    "StudentId": "65100",
    "StudentName": "Jose Andres Saavedra",
    "Lattitude": "29.87199",
    "Longittude": "-95.48863"
  },
  {
    "StudentId": "44420",
    "StudentName": "Cynthia Amy Nunez",
    "Lattitude": "29.92386",
    "Longittude": "-95.45282"
  },
  {
    "StudentId": "44292",
    "StudentName": "Melissa Diaz",
    "Lattitude": "29.92375",
    "Longittude": "-95.46007"
  },
  {
    "StudentId": "45140",
    "StudentName": "Joan Hernandez Moreira",
    "Lattitude": "29.88796",
    "Longittude": "-95.50155"
  },
  {
    "StudentId": "20730",
    "StudentName": "Ayling Daneli Vindel Smith",
    "Lattitude": "29.88061",
    "Longittude": "-95.46114"
  },
  {
    "StudentId": "22879",
    "StudentName": "Lizbeth Cruz",
    "Lattitude": "29.92261",
    "Longittude": "-95.45271"
  },
  {
    "StudentId": "49120",
    "StudentName": "Joscelyn Tovar Pena",
    "Lattitude": "29.92383",
    "Longittude": "-95.45643"
  },
  {
    "StudentId": "7630",
    "StudentName": "Jeison Ruiz Cruz",
    "Lattitude": "29.89074",
    "Longittude": "-95.44895"
  },
  {
    "StudentId": "23957",
    "StudentName": "Evelyn Xiomara Robledo",
    "Lattitude": "29.89007",
    "Longittude": "-95.4979"
  },
  {
    "StudentId": "24606",
    "StudentName": "Eduardo Rafael Cabrera Posada",
    "Lattitude": "29.91949",
    "Longittude": "-95.4533"
  },
  {
    "StudentId": "6548",
    "StudentName": "Evelyn Benavente Rodriguez",
    "Lattitude": "29.92261",
    "Longittude": "-95.45271"
  },
  {
    "StudentId": "18966",
    "StudentName": "Kaylah Eleniz Blanco",
    "Lattitude": "29.89394",
    "Longittude": "-95.43293"
  },
  {
    "StudentId": "62274",
    "StudentName": "Angelina Yulie Maldonado",
    "Lattitude": "29.88985",
    "Longittude": "-95.44587"
  },
  {
    "StudentId": "42005",
    "StudentName": "Bentley Sosa Diaz",
    "Lattitude": "29.89623",
    "Longittude": "-95.41015"
  },
  {
    "StudentId": "31178",
    "StudentName": "Daniel Mercado",
    "Lattitude": "29.89453",
    "Longittude": "-95.42104"
  },
  {
    "StudentId": "55645",
    "StudentName": "Pilar Andrea Tapia",
    "Lattitude": "29.8954",
    "Longittude": "-95.42496"
  },
  {
    "StudentId": "8621",
    "StudentName": "Jazmine Azucena Alvizo",
    "Lattitude": "29.89168",
    "Longittude": "-95.41602"
  },
  {
    "StudentId": "36668",
    "StudentName": "Justin Castro",
    "Lattitude": "29.89429",
    "Longittude": "-95.42441"
  },
  {
    "StudentId": "41733",
    "StudentName": "Jerimiah Alcaraz",
    "Lattitude": "29.90528",
    "Longittude": "-95.4095"
  },
  {
    "StudentId": "43196",
    "StudentName": "Anthony Saul Salazar",
    "Lattitude": "29.9073",
    "Longittude": "-95.42294"
  },
  {
    "StudentId": "47247",
    "StudentName": "Jose Abraham Gutierrez",
    "Lattitude": "29.89335",
    "Longittude": "-95.42213"
  },
  {
    "StudentId": "18525",
    "StudentName": "Ever Horacio Espinoza Montufar",
    "Lattitude": "29.9073",
    "Longittude": "-95.42294"
  },
  {
    "StudentId": "38611",
    "StudentName": "Jocelyn Jasmin Iglesias Martinez",
    "Lattitude": "29.89779",
    "Longittude": "-95.41843"
  },
  {
    "StudentId": "6905",
    "StudentName": "Melissa Gisel Hurtado",
    "Lattitude": "29.89017",
    "Longittude": "-95.42081"
  },
  {
    "StudentId": "15224",
    "StudentName": "Elmer Jovani Salazar",
    "Lattitude": "29.9073",
    "Longittude": "-95.42294"
  },
  {
    "StudentId": "61497",
    "StudentName": "Jason Anthony Flores",
    "Lattitude": "29.88594",
    "Longittude": "-95.41685"
  },
  {
    "StudentId": "29624",
    "StudentName": "Humberto Alejandro Solis Ballesteros",
    "Lattitude": "29.89519",
    "Longittude": "-95.41035"
  },
  {
    "StudentId": "45795",
    "StudentName": "Natalie Nicole Moralez",
    "Lattitude": "29.89149",
    "Longittude": "-95.41801"
  },
  {
    "StudentId": "65189",
    "StudentName": "Henrry Torres",
    "Lattitude": "29.89036",
    "Longittude": "-95.44108"
  },
  {
    "StudentId": "31340",
    "StudentName": "Reginald Earl Sneed",
    "Lattitude": "29.88853",
    "Longittude": "-95.43852"
  },
  {
    "StudentId": "21760",
    "StudentName": "Luz Estefania Montoya",
    "Lattitude": "29.8891",
    "Longittude": "-95.42452"
  },
  {
    "StudentId": "30364",
    "StudentName": "Jazlyn Aleida Cuello",
    "Lattitude": "29.89709",
    "Longittude": "-95.45463"
  },
  {
    "StudentId": "25455",
    "StudentName": "Perla Klarissa Umanzor",
    "Lattitude": "29.89058",
    "Longittude": "-95.43678"
  },
  {
    "StudentId": "54267",
    "StudentName": "Kenia Guadalupe Vazquez Morales",
    "Lattitude": "29.88838",
    "Longittude": "-95.42871"
  },
  {
    "StudentId": "56578",
    "StudentName": "Miguel Angel Carrillo",
    "Lattitude": "29.89032",
    "Longittude": "-95.42588"
  },
  {
    "StudentId": "52508",
    "StudentName": "Meliyah Ami Fontenette",
    "Lattitude": "29.89305",
    "Longittude": "-95.43859"
  },
  {
    "StudentId": "52044",
    "StudentName": "Brisa Rodriguez",
    "Lattitude": "29.89276",
    "Longittude": "-95.43879"
  },
  {
    "StudentId": "42583",
    "StudentName": "Thomas Vazquez",
    "Lattitude": "29.89036",
    "Longittude": "-95.44108"
  },
  {
    "StudentId": "8437",
    "StudentName": "Miranda Amaro",
    "Lattitude": "29.88007",
    "Longittude": "-95.35846"
  },
  {
    "StudentId": "52127",
    "StudentName": "Estrella Mendoza",
    "Lattitude": "29.89441",
    "Longittude": "-95.36857"
  },
  {
    "StudentId": "56156",
    "StudentName": "Adela Michelle Rojas",
    "Lattitude": "29.88912",
    "Longittude": "-95.35804"
  },
  {
    "StudentId": "51819",
    "StudentName": "Yoni Octavio Lopes-Peres",
    "Lattitude": "29.90814",
    "Longittude": "-95.3187"
  },
  {
    "StudentId": "43823",
    "StudentName": "Oscar Gerardo Flores",
    "Lattitude": "29.92892",
    "Longittude": "-95.36093"
  },
  {
    "StudentId": "30956",
    "StudentName": "Jade Esmeralda Huesos",
    "Lattitude": "29.91732",
    "Longittude": "-95.35428"
  },
  {
    "StudentId": "33413",
    "StudentName": "Jonathan Noel Lopez",
    "Lattitude": "29.886",
    "Longittude": "-95.34337"
  },
  {
    "StudentId": "11413",
    "StudentName": "Giovanni Pete Garza",
    "Lattitude": "29.89568",
    "Longittude": "-95.32838"
  },
  {
    "StudentId": "66830",
    "StudentName": "Marry Luisa Castillo",
    "Lattitude": "29.87881",
    "Longittude": "-95.31301"
  },
  {
    "StudentId": "39848",
    "StudentName": "Hanai Suezette Rivera",
    "Lattitude": "29.90668",
    "Longittude": "-95.34565"
  },
  {
    "StudentId": "37348",
    "StudentName": "Fabian Isaiah Torres Garcia",
    "Lattitude": "29.91363",
    "Longittude": "-95.30069"
  },
  {
    "StudentId": "65732",
    "StudentName": "Jimmy Stiven Gonzalez Martinez",
    "Lattitude": "29.90955",
    "Longittude": "-95.37167"
  },
  {
    "StudentId": "53296",
    "StudentName": "Saul Donaciano",
    "Lattitude": "29.88071",
    "Longittude": "-95.34114"
  },
  {
    "StudentId": "53433",
    "StudentName": "Paulina Caballero",
    "Lattitude": "29.88287",
    "Longittude": "-95.34402"
  },
  {
    "StudentId": "13760",
    "StudentName": "Mario Osmaro Santos Ascencio",
    "Lattitude": "29.90316",
    "Longittude": "-95.32963"
  },
  {
    "StudentId": "16186",
    "StudentName": "Saul Rubio",
    "Lattitude": "29.92775",
    "Longittude": "-95.29489"
  },
  {
    "StudentId": "52935",
    "StudentName": "Achillis Ishia Chun Carrillo",
    "Lattitude": "29.89071",
    "Longittude": "-95.3556"
  },
  {
    "StudentId": "47679",
    "StudentName": "Jocelyn Marie Sanchez",
    "Lattitude": "29.91095",
    "Longittude": "-95.3457"
  },
  {
    "StudentId": "54441",
    "StudentName": "Yadira Zuniga Velazquez",
    "Lattitude": "29.90468",
    "Longittude": "-95.31785"
  },
  {
    "StudentId": "67149",
    "StudentName": "Dolores Jane Ortiz",
    "Lattitude": "29.88864",
    "Longittude": "-95.32901"
  },
  {
    "StudentId": "56428",
    "StudentName": "Veronica Nicole Noyola",
    "Lattitude": "29.9073",
    "Longittude": "-95.33549"
  },
  {
    "StudentId": "40858",
    "StudentName": "Daylin Estefany Cardoza Maldonado",
    "Lattitude": "29.90681",
    "Longittude": "-95.34122"
  },
  {
    "StudentId": "9920",
    "StudentName": "Mauricio Carreon",
    "Lattitude": "29.90634",
    "Longittude": "-95.35806"
  },
  {
    "StudentId": "29849",
    "StudentName": "Ivan Perez",
    "Lattitude": "29.87806",
    "Longittude": "-95.33101"
  },
  {
    "StudentId": "3704",
    "StudentName": "Rafael Dominguez",
    "Lattitude": "29.88767",
    "Longittude": "-95.36093"
  },
  {
    "StudentId": "58990",
    "StudentName": "Belinda Marisela Matias Perez",
    "Lattitude": "29.88067",
    "Longittude": "-95.33871"
  },
  {
    "StudentId": "16937",
    "StudentName": "Joel Michael Martinez",
    "Lattitude": "29.90932",
    "Longittude": "-95.3296"
  },
  {
    "StudentId": "43410",
    "StudentName": "Arthur Zapata",
    "Lattitude": "29.88258",
    "Longittude": "-95.34572"
  },
  {
    "StudentId": "28654",
    "StudentName": "Juan Jose Carbajal",
    "Lattitude": "29.88799",
    "Longittude": "-95.33773"
  },
  {
    "StudentId": "50744",
    "StudentName": "Yosselyn Adrianna Zapata",
    "Lattitude": "29.90376",
    "Longittude": "-95.37258"
  },
  {
    "StudentId": "10883",
    "StudentName": "Julie Mendoza",
    "Lattitude": "29.9053",
    "Longittude": "-95.33815"
  },
  {
    "StudentId": "47175",
    "StudentName": "Maximiliano Martinez",
    "Lattitude": "29.89133",
    "Longittude": "-95.43545"
  },
  {
    "StudentId": "66051",
    "StudentName": "JeanCarlos Perla",
    "Lattitude": "29.92179",
    "Longittude": "-95.31171"
  },
  {
    "StudentId": "63443",
    "StudentName": "Aliyah Adriana Maldonado",
    "Lattitude": "29.92829",
    "Longittude": "-95.35416"
  },
  {
    "StudentId": "51305",
    "StudentName": "Samantha Elizabeth Mar",
    "Lattitude": "29.8821",
    "Longittude": "-95.33645"
  },
  {
    "StudentId": "46942",
    "StudentName": "Nicolas Angel Prado",
    "Lattitude": "29.903",
    "Longittude": "-95.31779"
  },
  {
    "StudentId": "15803",
    "StudentName": "Elijah Christian Rivera",
    "Lattitude": "29.90294",
    "Longittude": "-95.34042"
  },
  {
    "StudentId": "23266",
    "StudentName": "Edgar Mendoza",
    "Lattitude": "29.95018",
    "Longittude": "-95.37123"
  },
  {
    "StudentId": "57973",
    "StudentName": "Jonathan Mata",
    "Lattitude": "29.91496",
    "Longittude": "-95.3671"
  },
  {
    "StudentId": "17991",
    "StudentName": "Diana Serrano",
    "Lattitude": "29.87542",
    "Longittude": "-95.38411"
  },
  {
    "StudentId": "43566",
    "StudentName": "Ray Anthony Rodriguez",
    "Lattitude": "29.89906",
    "Longittude": "-95.33569"
  },
  {
    "StudentId": "29668",
    "StudentName": "Uriel Vazquez",
    "Lattitude": "29.90029",
    "Longittude": "-95.33654"
  },
  {
    "StudentId": "20731",
    "StudentName": "Raquel Leeloo Herrera Gonzalez",
    "Lattitude": "29.90468",
    "Longittude": "-95.34773"
  },
  {
    "StudentId": "64084",
    "StudentName": "Joe Jacob Ortiz",
    "Lattitude": "29.89801",
    "Longittude": "-95.33697"
  },
  {
    "StudentId": "61193",
    "StudentName": "Renata Jeraldyn Rodriguez",
    "Lattitude": "29.927229",
    "Longittude": "-95.3560546"
  },
  {
    "StudentId": "57706",
    "StudentName": "Karla Fabiola Nila",
    "Lattitude": "29.89786",
    "Longittude": "-95.33409"
  },
  {
    "StudentId": "19964",
    "StudentName": "Hector Martinez Reyna",
    "Lattitude": "29.91486",
    "Longittude": "-95.33279"
  },
  {
    "StudentId": "60707",
    "StudentName": "Edwin Daniel Castro-Esqueda",
    "Lattitude": "29.90857",
    "Longittude": "-95.33469"
  },
  {
    "StudentId": "27399",
    "StudentName": "Andres Eric Maciel",
    "Lattitude": "29.90393",
    "Longittude": "-95.34266"
  },
  {
    "StudentId": "45150",
    "StudentName": "Alyza Lynell Gamez",
    "Lattitude": "29.87876",
    "Longittude": "-95.29359"
  },
  {
    "StudentId": "52735",
    "StudentName": "Yanely Vazquez",
    "Lattitude": "29.90269",
    "Longittude": "-95.34251"
  },
  {
    "StudentId": "19881",
    "StudentName": "Fernando Jose Olivares Murillo",
    "Lattitude": "29.90768",
    "Longittude": "-95.33354"
  },
  {
    "StudentId": "8938",
    "StudentName": "Alexander Saldana",
    "Lattitude": "29.90926",
    "Longittude": "-95.3326"
  },
  {
    "StudentId": "55267",
    "StudentName": "Amori Charle' Gonzalez",
    "Lattitude": "29.90027",
    "Longittude": "-95.33871"
  },
  {
    "StudentId": "33468",
    "StudentName": "Angelique Moya",
    "Lattitude": "29.90333",
    "Longittude": "-95.34953"
  },
  {
    "StudentId": "66965",
    "StudentName": "Karina Celis",
    "Lattitude": "29.89562",
    "Longittude": "-95.33666"
  },
  {
    "StudentId": "6667",
    "StudentName": "Chelsea Arleth Maldonado",
    "Lattitude": "29.90742",
    "Longittude": "-95.33164"
  },
  {
    "StudentId": "27560",
    "StudentName": "Olivia Rose Hernandez",
    "Lattitude": "29.89978",
    "Longittude": "-95.3399"
  },
  {
    "StudentId": "56713",
    "StudentName": "Julieta Gonzalez",
    "Lattitude": "29.927229",
    "Longittude": "-95.3560546"
  },
  {
    "StudentId": "48909",
    "StudentName": "Moises Diaz-Garcia",
    "Lattitude": "29.89784",
    "Longittude": "-95.338"
  },
  {
    "StudentId": "67604",
    "StudentName": "Jacqueline Guadalupe Marin",
    "Lattitude": "29.927229",
    "Longittude": "-95.3560546"
  },
  {
    "StudentId": "36266",
    "StudentName": "Javian Andrew Cruz",
    "Lattitude": "29.90367",
    "Longittude": "-95.33678"
  },
  {
    "StudentId": "12698",
    "StudentName": "Luis Alberto Gutierrez",
    "Lattitude": "29.90625",
    "Longittude": "-95.33665"
  },
  {
    "StudentId": "30212",
    "StudentName": "Gilberto Diaz",
    "Lattitude": "29.91821",
    "Longittude": "-95.29966"
  },
  {
    "StudentId": "36047",
    "StudentName": "Yareny Julibeth Victoria",
    "Lattitude": "29.89512",
    "Longittude": "-95.33532"
  },
  {
    "StudentId": "61958",
    "StudentName": "Alejandro Trujillo",
    "Lattitude": "29.91526",
    "Longittude": "-95.34718"
  },
  {
    "StudentId": "38685",
    "StudentName": "Josseline Paola Bueso Palma",
    "Lattitude": "29.85566",
    "Longittude": "-95.32571"
  },
  {
    "StudentId": "35823",
    "StudentName": "Jazmin Lopez",
    "Lattitude": "29.89441",
    "Longittude": "-95.36857"
  },
  {
    "StudentId": "45344",
    "StudentName": "Jesus Eduardo Ramos Ruiz",
    "Lattitude": "29.87375",
    "Longittude": "-95.31808"
  },
  {
    "StudentId": "7788",
    "StudentName": "Diego Vazquez",
    "Lattitude": "29.90433",
    "Longittude": "-95.3279"
  },
  {
    "StudentId": "39646",
    "StudentName": "Brayan Jesus Rodriguez",
    "Lattitude": "29.88813",
    "Longittude": "-95.36091"
  },
  {
    "StudentId": "45698",
    "StudentName": "Viridiana Sanchez Rodriguez",
    "Lattitude": "29.87337",
    "Longittude": "-95.33267"
  },
  {
    "StudentId": "37896",
    "StudentName": "Angel Gabriel  Aranda",
    "Lattitude": "29.88472",
    "Longittude": "-95.33425"
  },
  {
    "StudentId": "5385",
    "StudentName": "Emilio Alonzo Avendano",
    "Lattitude": "29.87733",
    "Longittude": "-95.32259"
  },
  {
    "StudentId": "35966",
    "StudentName": "Oscar Manuel Sifuentes",
    "Lattitude": "29.89646",
    "Longittude": "-95.32839"
  },
  {
    "StudentId": "33424",
    "StudentName": "Julisa Orozco",
    "Lattitude": "29.88211",
    "Longittude": "-95.33421"
  },
  {
    "StudentId": "55837",
    "StudentName": "Jaliah Torres",
    "Lattitude": "29.87164",
    "Longittude": "-95.33114"
  },
  {
    "StudentId": "45990",
    "StudentName": "Oscar Jesse Sanchez",
    "Lattitude": "29.9045243",
    "Longittude": "-95.3318916"
  },
  {
    "StudentId": "52001",
    "StudentName": "Erick Anthony Garcia",
    "Lattitude": "29.90653",
    "Longittude": "-95.33803"
  },
  {
    "StudentId": "33492",
    "StudentName": "Jair Alberto Garcia",
    "Lattitude": "29.89628",
    "Longittude": "-95.33934"
  },
  {
    "StudentId": "50643",
    "StudentName": "Ashley Garcia",
    "Lattitude": "29.88982",
    "Longittude": "-95.32018"
  },
  {
    "StudentId": "43745",
    "StudentName": "David Ramirez Oliveros",
    "Lattitude": "29.88699",
    "Longittude": "-95.33484"
  },
  {
    "StudentId": "14141",
    "StudentName": "Yamirely Pineda",
    "Lattitude": "29.88504",
    "Longittude": "-95.31234"
  },
  {
    "StudentId": "38291",
    "StudentName": "Ruth Cerino",
    "Lattitude": "29.87566",
    "Longittude": "-95.3178"
  },
  {
    "StudentId": "23008",
    "StudentName": "Mileena Danielle Gomez",
    "Lattitude": "29.90427",
    "Longittude": "-95.31417"
  },
  {
    "StudentId": "58371",
    "StudentName": "Joshua Aiden Morillon",
    "Lattitude": "29.8827",
    "Longittude": "-95.3579"
  },
  {
    "StudentId": "36644",
    "StudentName": "Joaquin Banda",
    "Lattitude": "29.88605",
    "Longittude": "-95.33468"
  },
  {
    "StudentId": "50811",
    "StudentName": "Mark Anthony Villasana",
    "Lattitude": "29.88699",
    "Longittude": "-95.33358"
  },
  {
    "StudentId": "35278",
    "StudentName": "Erik Rios",
    "Lattitude": "29.88699",
    "Longittude": "-95.32685"
  },
  {
    "StudentId": "64339",
    "StudentName": "Angel Leon Chong",
    "Lattitude": "29.90349",
    "Longittude": "-95.31979"
  },
  {
    "StudentId": "26695",
    "StudentName": "Joshua Lagos",
    "Lattitude": "29.903",
    "Longittude": "-95.31779"
  },
  {
    "StudentId": "58834",
    "StudentName": "Leonardo Martinez",
    "Lattitude": "29.90759",
    "Longittude": "-95.32742"
  },
  {
    "StudentId": "49453",
    "StudentName": "Juliette Marie Sandoval",
    "Lattitude": "29.87125",
    "Longittude": "-95.32686"
  },
  {
    "StudentId": "63005",
    "StudentName": "Bianca Guadalupe Rodriguez",
    "Lattitude": "29.91063",
    "Longittude": "-95.32509"
  },
  {
    "StudentId": "53455",
    "StudentName": "Brianah Alaze Hernandez",
    "Lattitude": "29.88268",
    "Longittude": "-95.3382"
  },
  {
    "StudentId": "28924",
    "StudentName": "Daniel Interiano",
    "Lattitude": "29.87943",
    "Longittude": "-95.31976"
  },
  {
    "StudentId": "21147",
    "StudentName": "Angel Lopez",
    "Lattitude": "29.88662",
    "Longittude": "-95.32291"
  },
  {
    "StudentId": "51598",
    "StudentName": "Diego Shawn Acosta",
    "Lattitude": "29.9055",
    "Longittude": "-95.34135"
  },
  {
    "StudentId": "62373",
    "StudentName": "Yenifer Valentina Lopez",
    "Lattitude": "29.90829",
    "Longittude": "-95.33016"
  },
  {
    "StudentId": "37478",
    "StudentName": "Trinity Angelina Atkinson",
    "Lattitude": "29.89438",
    "Longittude": "-95.33339"
  },
  {
    "StudentId": "43770",
    "StudentName": "Daisy Ann Bustamante",
    "Lattitude": "29.92568",
    "Longittude": "-95.29434"
  },
  {
    "StudentId": "16119",
    "StudentName": "Mia Verenice Martinez",
    "Lattitude": "29.88024",
    "Longittude": "-95.3499"
  },
  {
    "StudentId": "34372",
    "StudentName": "Anjelica Galvan",
    "Lattitude": "29.89603",
    "Longittude": "-95.36698"
  },
  {
    "StudentId": "49154",
    "StudentName": "Felipe D Jesus Saldana Mares",
    "Lattitude": "29.90803",
    "Longittude": "-95.32098"
  },
  {
    "StudentId": "36594",
    "StudentName": "Pedro Junior Barron",
    "Lattitude": "29.87735",
    "Longittude": "-95.31771"
  },
  {
    "StudentId": "40878",
    "StudentName": "Ashley Nicole Torres",
    "Lattitude": "29.87749",
    "Longittude": "-95.31659"
  },
  {
    "StudentId": "17830",
    "StudentName": "Julian Martinez",
    "Lattitude": "29.87671",
    "Longittude": "-95.334"
  },
  {
    "StudentId": "50120",
    "StudentName": "Josue Martinez",
    "Lattitude": "29.89809",
    "Longittude": "-95.33655"
  },
  {
    "StudentId": "14123",
    "StudentName": "Kevin Alexander Sanchez",
    "Lattitude": "29.90864",
    "Longittude": "-95.32583"
  },
  {
    "StudentId": "33951",
    "StudentName": "Oscar Delgado",
    "Lattitude": "29.89711",
    "Longittude": "-95.33386"
  },
  {
    "StudentId": "17130",
    "StudentName": "Fabian Alexander Rodriguez",
    "Lattitude": "29.90144",
    "Longittude": "-95.30325"
  },
  {
    "StudentId": "53869",
    "StudentName": "Bethany Elizabeth Alcaraz",
    "Lattitude": "29.85401",
    "Longittude": "-95.3282"
  },
  {
    "StudentId": "67442",
    "StudentName": "Lacey Gayle Cortez",
    "Lattitude": "29.90274",
    "Longittude": "-95.34345"
  },
  {
    "StudentId": "42488",
    "StudentName": "Natalie Rene Medina",
    "Lattitude": "29.85582",
    "Longittude": "-95.32371"
  },
  {
    "StudentId": "32587",
    "StudentName": "Bryan Torres",
    "Lattitude": "29.87339",
    "Longittude": "-95.32385"
  },
  {
    "StudentId": "62724",
    "StudentName": "Ruben Reyes Guerrero",
    "Lattitude": "29.89511",
    "Longittude": "-95.33222"
  },
  {
    "StudentId": "23944",
    "StudentName": "Paola De Jesus Perez Rico",
    "Lattitude": "29.90857",
    "Longittude": "-95.32997"
  },
  {
    "StudentId": "38351",
    "StudentName": "Odett Ariadna Vargas Rodriguez",
    "Lattitude": "29.89111",
    "Longittude": "-95.36088"
  },
  {
    "StudentId": "15061",
    "StudentName": "Elisa Andrea Brenes",
    "Lattitude": "29.91081",
    "Longittude": "-95.33866"
  },
  {
    "StudentId": "51975",
    "StudentName": "Alicia Escobedo Espinoza",
    "Lattitude": "29.88114",
    "Longittude": "-95.33212"
  },
  {
    "StudentId": "66145",
    "StudentName": "Johnny Gutierrez",
    "Lattitude": "29.88211",
    "Longittude": "-95.34093"
  },
  {
    "StudentId": "7679",
    "StudentName": "Jesus Omar Reyna Robledo",
    "Lattitude": "29.91042",
    "Longittude": "-95.36789"
  },
  {
    "StudentId": "28433",
    "StudentName": "Dubal Joseph Juares",
    "Lattitude": "29.90982",
    "Longittude": "-95.34363"
  },
  {
    "StudentId": "2903",
    "StudentName": "Desirey Allyson Gardner",
    "Lattitude": "29.90868",
    "Longittude": "-95.30789"
  },
  {
    "StudentId": "33115",
    "StudentName": "Hope Bermudez",
    "Lattitude": "29.90485",
    "Longittude": "-95.34384"
  },
  {
    "StudentId": "12781",
    "StudentName": "Ayleen Arely Valenzuela",
    "Lattitude": "29.89441",
    "Longittude": "-95.36857"
  },
  {
    "StudentId": "53734",
    "StudentName": "Steven Hernandez Ventura",
    "Lattitude": "29.87469",
    "Longittude": "-95.32129"
  },
  {
    "StudentId": "4949",
    "StudentName": "Jose  Miguel Romero Majano",
    "Lattitude": "29.87164",
    "Longittude": "-95.33106"
  },
  {
    "StudentId": "50805",
    "StudentName": "Jose Trinidad Castillo Villalpando",
    "Lattitude": "29.84689",
    "Longittude": "-95.32664"
  },
  {
    "StudentId": "9971",
    "StudentName": "Jessica Elias-Servin",
    "Lattitude": "29.90129",
    "Longittude": "-95.31706"
  },
  {
    "StudentId": "4280",
    "StudentName": "Victor Manuel Sanchez",
    "Lattitude": "29.92262",
    "Longittude": "-95.30809"
  },
  {
    "StudentId": "42527",
    "StudentName": "Alejandro Armando Manriquez",
    "Lattitude": "29.88428",
    "Longittude": "-95.32576"
  },
  {
    "StudentId": "5515",
    "StudentName": "Liliana Garza",
    "Lattitude": "29.90772",
    "Longittude": "-95.32173"
  },
  {
    "StudentId": "6757",
    "StudentName": "Oliver Millan",
    "Lattitude": "29.90439",
    "Longittude": "-95.33697"
  },
  {
    "StudentId": "55809",
    "StudentName": "Esmeralda Guadalupe Juarez",
    "Lattitude": "29.86033",
    "Longittude": "-95.32045"
  },
  {
    "StudentId": "4138",
    "StudentName": "Jeremy Ray Perez",
    "Lattitude": "29.90937",
    "Longittude": "-95.32664"
  },
  {
    "StudentId": "25826",
    "StudentName": "Esmeralda Pineda Pacheco",
    "Lattitude": "29.92439",
    "Longittude": "-95.30023"
  },
  {
    "StudentId": "35084",
    "StudentName": "Abigail Angelita Medina",
    "Lattitude": "29.87122",
    "Longittude": "-95.32623"
  },
  {
    "StudentId": "48364",
    "StudentName": "Aurora Rojas",
    "Lattitude": "29.87404",
    "Longittude": "-95.32568"
  },
  {
    "StudentId": "46315",
    "StudentName": "Michael Bryan Rebolloso",
    "Lattitude": "29.87334",
    "Longittude": "-95.3237"
  },
  {
    "StudentId": "54692",
    "StudentName": "David Martinez",
    "Lattitude": "29.88851",
    "Longittude": "-95.31571"
  },
  {
    "StudentId": "49428",
    "StudentName": "Alondra Yamileth Estrada",
    "Lattitude": "29.87515",
    "Longittude": "-95.31781"
  },
  {
    "StudentId": "48776",
    "StudentName": "Alfredo Guadalupe Martinez",
    "Lattitude": "29.88109",
    "Longittude": "-95.33897"
  },
  {
    "StudentId": "38846",
    "StudentName": "Edward Tenesela",
    "Lattitude": "29.90721",
    "Longittude": "-95.30714"
  },
  {
    "StudentId": "62927",
    "StudentName": "Maximus Anthony Murdock",
    "Lattitude": "29.90609",
    "Longittude": "-95.3342"
  },
  {
    "StudentId": "12490",
    "StudentName": "Diana Ivett Galaviz Arriaga",
    "Lattitude": "29.90873",
    "Longittude": "-95.30351"
  },
  {
    "StudentId": "34664",
    "StudentName": "Daniel Joseph Rodriguez",
    "Lattitude": "29.91062",
    "Longittude": "-95.346"
  },
  {
    "StudentId": "55047",
    "StudentName": "Raul Vela",
    "Lattitude": "29.87737",
    "Longittude": "-95.31851"
  },
  {
    "StudentId": "36321",
    "StudentName": "Adrian Alberto Ortega",
    "Lattitude": "29.87803",
    "Longittude": "-95.33371"
  },
  {
    "StudentId": "62866",
    "StudentName": "Jacquelyn Rangel",
    "Lattitude": "29.89424",
    "Longittude": "-95.33903"
  },
  {
    "StudentId": "10533",
    "StudentName": "Jordan Rey Capuchino",
    "Lattitude": "29.88216",
    "Longittude": "-95.34811"
  },
  {
    "StudentId": "9070",
    "StudentName": "Jesus Lorenzo Hernandez",
    "Lattitude": "29.92055",
    "Longittude": "-95.31266"
  },
  {
    "StudentId": "39895",
    "StudentName": "Ashley Hernandez",
    "Lattitude": "29.88386",
    "Longittude": "-95.36077"
  },
  {
    "StudentId": "32161",
    "StudentName": "Julian Cisneros",
    "Lattitude": "29.87617",
    "Longittude": "-95.33487"
  },
  {
    "StudentId": "36834",
    "StudentName": "Karina Nataly Bermudez",
    "Lattitude": "29.90852",
    "Longittude": "-95.31961"
  },
  {
    "StudentId": "17503",
    "StudentName": "Osbaldo Anthony Morillon",
    "Lattitude": "29.88579",
    "Longittude": "-95.36"
  },
  {
    "StudentId": "47060",
    "StudentName": "Azucena Muniz",
    "Lattitude": "29.92623",
    "Longittude": "-95.31325"
  },
  {
    "StudentId": "38450",
    "StudentName": "Eric Isaiah Garza",
    "Lattitude": "29.88472",
    "Longittude": "-95.33801"
  },
  {
    "StudentId": "61006",
    "StudentName": "Jean J Hernandez Viramontes",
    "Lattitude": "29.90997",
    "Longittude": "-95.34869"
  },
  {
    "StudentId": "26402",
    "StudentName": "Felix Eduardo Reyes Cristino",
    "Lattitude": "29.90129",
    "Longittude": "-95.31706"
  },
  {
    "StudentId": "37882",
    "StudentName": "Jazmine Torres",
    "Lattitude": "29.87404",
    "Longittude": "-95.32568"
  },
  {
    "StudentId": "55236",
    "StudentName": "Ethan Aguilar",
    "Lattitude": "29.87121",
    "Longittude": "-95.32235"
  },
  {
    "StudentId": "46391",
    "StudentName": "Alejandro Cervantes",
    "Lattitude": "29.9027602",
    "Longittude": "-95.3272817"
  },
  {
    "StudentId": "18661",
    "StudentName": "Jiselle Juliana Canseco",
    "Lattitude": "29.87905",
    "Longittude": "-95.32119"
  },
  {
    "StudentId": "46889",
    "StudentName": "Yanahi Rivera",
    "Lattitude": "29.88081",
    "Longittude": "-95.31719"
  },
  {
    "StudentId": "55799",
    "StudentName": "Mateo Damian Santiago",
    "Lattitude": "29.8529",
    "Longittude": "-95.33085"
  },
  {
    "StudentId": "6009",
    "StudentName": "Michael Eli Aviles Gonzales",
    "Lattitude": "29.90917",
    "Longittude": "-95.30801"
  },
  {
    "StudentId": "47208",
    "StudentName": "Magali Hernandez-Torres",
    "Lattitude": "29.903",
    "Longittude": "-95.31779"
  },
  {
    "StudentId": "26581",
    "StudentName": "David Samuel Valles",
    "Lattitude": "29.87298",
    "Longittude": "-95.33472"
  },
  {
    "StudentId": "40853",
    "StudentName": "Moises Adalberto Salazar",
    "Lattitude": "29.87304",
    "Longittude": "-95.33156"
  },
  {
    "StudentId": "44881",
    "StudentName": "Maribel Chavez",
    "Lattitude": "29.88705",
    "Longittude": "-95.31674"
  },
  {
    "StudentId": "49634",
    "StudentName": "Jessica Letisia Lopez",
    "Lattitude": "29.90352",
    "Longittude": "-95.31726"
  },
  {
    "StudentId": "57105",
    "StudentName": "Angel Emmanuel Carrizales Perez",
    "Lattitude": "29.87519",
    "Longittude": "-95.31526"
  },
  {
    "StudentId": "4742",
    "StudentName": "Jade Madahi Esquivel Lopez",
    "Lattitude": "29.90228",
    "Longittude": "-95.32027"
  },
  {
    "StudentId": "39682",
    "StudentName": "Andrew Darwin Nunez",
    "Lattitude": "29.89481",
    "Longittude": "-95.31351"
  },
  {
    "StudentId": "29579",
    "StudentName": "Francisco De Jesus Avina",
    "Lattitude": "29.88842",
    "Longittude": "-95.32076"
  },
  {
    "StudentId": "25788",
    "StudentName": "Destiny Marie Barron",
    "Lattitude": "29.87808",
    "Longittude": "-95.32848"
  },
  {
    "StudentId": "62349",
    "StudentName": "Abelardo Cruz Garcia",
    "Lattitude": "29.8736",
    "Longittude": "-95.31968"
  },
  {
    "StudentId": "5489",
    "StudentName": "Irma Aracely Moreno",
    "Lattitude": "29.84981",
    "Longittude": "-95.32569"
  },
  {
    "StudentId": "46234",
    "StudentName": "Astry Fabiola Garcia Portillo",
    "Lattitude": "29.87646",
    "Longittude": "-95.3155"
  },
  {
    "StudentId": "41662",
    "StudentName": "Junior Alexis Reyes",
    "Lattitude": "29.88574",
    "Longittude": "-95.32824"
  },
  {
    "StudentId": "56045",
    "StudentName": "Alexandra Zuniga Gutierrez",
    "Lattitude": "29.8939686",
    "Longittude": "-95.3063867"
  },
  {
    "StudentId": "18357",
    "StudentName": "Nickolas Alexander Garcia",
    "Lattitude": "29.88699",
    "Longittude": "-95.32706"
  },
  {
    "StudentId": "3455",
    "StudentName": "Miranda Mijares",
    "Lattitude": "29.89177",
    "Longittude": "-95.32596"
  },
  {
    "StudentId": "7599",
    "StudentName": "Alfredo Molina",
    "Lattitude": "29.94174",
    "Longittude": "-95.27267"
  },
  {
    "StudentId": "7550",
    "StudentName": "Gloria Murillo",
    "Lattitude": "29.87269",
    "Longittude": "-95.32489"
  },
  {
    "StudentId": "47976",
    "StudentName": "Anthony Xavier Monsivais",
    "Lattitude": "29.85357",
    "Longittude": "-95.3282"
  },
  {
    "StudentId": "29005",
    "StudentName": "Jose Cobio",
    "Lattitude": "29.85603",
    "Longittude": "-95.33182"
  },
  {
    "StudentId": "31711",
    "StudentName": "Jose Emanuel Ruiz",
    "Lattitude": "29.87593",
    "Longittude": "-95.31859"
  },
  {
    "StudentId": "24328",
    "StudentName": "Jese Turrubiartes",
    "Lattitude": "29.87205",
    "Longittude": "-95.31806"
  },
  {
    "StudentId": "4252",
    "StudentName": "Cruz Jaciel Leon",
    "Lattitude": "29.87901",
    "Longittude": "-95.3187"
  },
  {
    "StudentId": "26638",
    "StudentName": "Miguel Angel Aguinaga",
    "Lattitude": "29.87066",
    "Longittude": "-95.32397"
  },
  {
    "StudentId": "21416",
    "StudentName": "Jasmin Alexis Mendoza",
    "Lattitude": "29.87304",
    "Longittude": "-95.33156"
  },
  {
    "StudentId": "38973",
    "StudentName": "Elena Isabel Solis Alvarado",
    "Lattitude": "29.85514",
    "Longittude": "-95.32438"
  },
  {
    "StudentId": "17867",
    "StudentName": "Jeremai Eli Velasquez",
    "Lattitude": "29.85357",
    "Longittude": "-95.32842"
  },
  {
    "StudentId": "63486",
    "StudentName": "Eduardo Oziel Silvestre Juarez",
    "Lattitude": "29.88905",
    "Longittude": "-95.32752"
  },
  {
    "StudentId": "53447",
    "StudentName": "Madeline Ruiz Caceres",
    "Lattitude": "29.903",
    "Longittude": "-95.31779"
  },
  {
    "StudentId": "24188",
    "StudentName": "Melanie Athena Castro",
    "Lattitude": "29.88617",
    "Longittude": "-95.32453"
  },
  {
    "StudentId": "62785",
    "StudentName": "Alejandro Alvarez",
    "Lattitude": "29.87797",
    "Longittude": "-95.31724"
  },
  {
    "StudentId": "58687",
    "StudentName": "Caleb Delgado",
    "Lattitude": "29.9081",
    "Longittude": "-95.30057"
  },
  {
    "StudentId": "46104",
    "StudentName": "Ilaiza Ariana Soto",
    "Lattitude": "29.8881",
    "Longittude": "-95.32748"
  },
  {
    "StudentId": "41993",
    "StudentName": "Lesly Lizeth Martinez Ramos",
    "Lattitude": "29.90095",
    "Longittude": "-95.31935"
  },
  {
    "StudentId": "14950",
    "StudentName": "Ana Camila Diaz",
    "Lattitude": "29.903",
    "Longittude": "-95.31779"
  },
  {
    "StudentId": "7762",
    "StudentName": "Estrella Gisselle Martinez",
    "Lattitude": "29.89492",
    "Longittude": "-95.30791"
  },
  {
    "StudentId": "42231",
    "StudentName": "Carolina Vazquez",
    "Lattitude": "29.87802",
    "Longittude": "-95.33426"
  },
  {
    "StudentId": "61359",
    "StudentName": "Lesli Dareli Romero Mercado",
    "Lattitude": "29.90316",
    "Longittude": "-95.32963"
  },
  {
    "StudentId": "59891",
    "StudentName": "Jaime Baeza",
    "Lattitude": "29.90546",
    "Longittude": "-95.31678"
  },
  {
    "StudentId": "50765",
    "StudentName": "Sofia Nicolle Hernandez Garcia",
    "Lattitude": "29.9027602",
    "Longittude": "-95.3272817"
  },
  {
    "StudentId": "15270",
    "StudentName": "Amparo Judith Hernandez Sanchez",
    "Lattitude": "29.9045243",
    "Longittude": "-95.3318916"
  },
  {
    "StudentId": "39711",
    "StudentName": "Jocelyn Scarlet Vidales",
    "Lattitude": "29.92512",
    "Longittude": "-95.30452"
  },
  {
    "StudentId": "61079",
    "StudentName": "Alexa Torres",
    "Lattitude": "29.91095",
    "Longittude": "-95.32837"
  },