[{"StudentId":"8107","Lattitude":"39.73503578","Longittude":"-86.24240588","StudentName":"Destiny J Austin"},
{"StudentId":"10579","Lattitude":"39.8208","Longittude":"-86.28906","StudentName":"Oluwadotun C Pius"},
{"StudentId":"10818","Lattitude":"39.75669","Longittude":"-86.32232","StudentName":"Camryn Alanis"},
{"StudentId":"3799","Lattitude":"39.76999","Longittude":"-86.28684","StudentName":"Everly Gracelynn Kay Brooking"},
{"StudentId":"9916","Lattitude":"39.76049","Longittude":"-86.25058","StudentName":"Litzy Naomi Martinez-Becerril"},
{"StudentId":"12731","Lattitude":"39.76956","Longittude":"-86.26562","StudentName":"Miguel Ocampo-Medina"},
{"StudentId":"17923","Lattitude":"39.8013443","Longittude":"-86.3246643","StudentName":"Ja'Nya Marie Monie"},
{"StudentId":"7167","Lattitude":"39.81272","Longittude":"-86.28658","StudentName":"Mi'kel R Simpson"},
{"StudentId":"9173","Lattitude":"39.77829","Longittude":"-86.29505","StudentName":"David Dezmond Anthony Cane"},
{"StudentId":"6230","Lattitude":"39.7587704","Longittude":"-86.24778445","StudentName":"Elijah Malik Moses"},
{"StudentId":"17819","Lattitude":"39.7452984","Longittude":"-86.3192194","StudentName":"Cindy Guadalupe Menchaca"},
{"StudentId":"4638","Lattitude":"39.76573","Longittude":"-86.25826","StudentName":"Martha Carolina Romero"},
{"StudentId":"8920","Lattitude":"39.75960501","Longittude":"-86.24357775","StudentName":"Rashad Shurmir-Lee Harvey"},
{"StudentId":"8040","Lattitude":"39.7783","Longittude":"-86.29562","StudentName":"Silvino Jimenez"},
{"StudentId":"19465","Lattitude":"39.75552","Longittude":"-86.25163","StudentName":"Alexa Esmeralda Rios"},
{"StudentId":"14764","Lattitude":"39.74762","Longittude":"-86.27861","StudentName":"Erica Nicole Smith"},
{"StudentId":"11188","Lattitude":"39.78218","Longittude":"-86.32218","StudentName":"Isaiah James Taylor"},
{"StudentId":"11942","Lattitude":"39.7663","Longittude":"-86.2178","StudentName":"Melissa Martinez Cruz"},
{"StudentId":"11319","Lattitude":"39.81139","Longittude":"-86.3036","StudentName":"Landon Mcdonald"},
{"StudentId":"10031","Lattitude":"39.82119","Longittude":"-86.28366","StudentName":"Titus Alexander Gaddis"},
{"StudentId":"4881","Lattitude":"39.78874","Longittude":"-86.27787","StudentName":"Zoey Noelle Sherman"},
{"StudentId":"17530","Lattitude":"39.75755726","Longittude":"-86.28704849","StudentName":"Fatima Abba"},
{"StudentId":"7541","Lattitude":"39.91483","Longittude":"-86.2706","StudentName":"Morgan Bailey Graves"},
{"StudentId":"11339","Lattitude":"39.75933212","Longittude":"-86.26895491","StudentName":"Mackenzie Leean Grissom"},
{"StudentId":"7004","Lattitude":"39.80011","Longittude":"-86.31722","StudentName":"Dominick Lewis Raine"},
{"StudentId":"16308","Lattitude":"39.77249","Longittude":"-86.25961","StudentName":"Griffin Andrew Carnagua"},
{"StudentId":"16388","Lattitude":"39.81284","Longittude":"-86.32204","StudentName":"Preslie Feldkamp"},
{"StudentId":"13981","Lattitude":"39.78417","Longittude":"-86.25898","StudentName":"Boluwatife Daniel Akinwamide"},
{"StudentId":"16730","Lattitude":"39.79148","Longittude":"-86.20495","StudentName":"Miy'Auana Don'yai Searcy"},
{"StudentId":"5183","Lattitude":"39.76784","Longittude":"-86.31287","StudentName":"Yvanna Torres"},
{"StudentId":"9539","Lattitude":"39.7592489","Longittude":"-86.27985241","StudentName":"Samuel Cantu-Jijon"},
{"StudentId":"11547","Lattitude":"39.80693","Longittude":"-86.32296","StudentName":"Liandro Miel Dempsey"},
{"StudentId":"4101","Lattitude":"39.7568","Longittude":"-86.32019","StudentName":"Cameron Antonio Cruz"},
{"StudentId":"13459","Lattitude":"39.78683","Longittude":"-86.27901","StudentName":"Ovina Angelita Baumann"},
{"StudentId":"15931","Lattitude":"39.81968","Longittude":"-86.29256","StudentName":"Emmarie Shaunte' King"},
{"StudentId":"6648","Lattitude":"39.7909","Longittude":"-86.29199","StudentName":"Branden Caiden Garcia"},
{"StudentId":"4664","Lattitude":"39.76726","Longittude":"-86.26654","StudentName":"Kaleigha Emalee-Janelle Exantu"},
{"StudentId":"19213","Lattitude":"39.81029","Longittude":"-86.29153","StudentName":"Jeremias Ezequiel De Leon-Vega"},
{"StudentId":"11840","Lattitude":"39.75619","Longittude":"-86.26264","StudentName":"David Emmanuel Lovera"},
{"StudentId":"11361","Lattitude":"39.77638","Longittude":"-86.26475","StudentName":"Tomiloba Taofeek Adigun"},
{"StudentId":"11420","Lattitude":"39.7659","Longittude":"-86.31539","StudentName":"KeShawn Keyemi Comer"},
{"StudentId":"11990","Lattitude":"39.77689","Longittude":"-86.29559","StudentName":"Jamiyah Cora Renea Joiner"},
{"StudentId":"4629","Lattitude":"39.75465476","Longittude":"-86.23196988","StudentName":"Baylee Rose Kirby"},
{"StudentId":"5326","Lattitude":"39.8145","Longittude":"-86.28515","StudentName":"Na'Kaela Chante Walker"},
{"StudentId":"8808","Lattitude":"39.78114","Longittude":"-86.32181","StudentName":"Isaiah Michael Smith"},
{"StudentId":"10046","Lattitude":"39.79546","Longittude":"-86.27308","StudentName":"Djohlo Gbouhon Koudou"},
{"StudentId":"7753","Lattitude":"39.7528432","Longittude":"-86.27971821","StudentName":"Kimberly Rashel Rodriguez-Euce"},
{"StudentId":"7838","Lattitude":"39.77557","Longittude":"-86.2833","StudentName":"Lizbeth Mateo Santos"},
{"StudentId":"18986","Lattitude":"39.75395","Longittude":"-86.24084","StudentName":"Genesis Gonzalez Caceres"},
{"StudentId":"12226","Lattitude":"39.72834","Longittude":"-86.2291","StudentName":"Katrina Diamond Reck"},
{"StudentId":"8439","Lattitude":"39.79941","Longittude":"-86.31113","StudentName":"Natalie Jean Wilhite"},
{"StudentId":"11569","Lattitude":"39.77068","Longittude":"-86.264","StudentName":"Luke Junior Geffrard"},
{"StudentId":"10689","Lattitude":"39.7843254","Longittude":"-86.3221277","StudentName":"Kaiya Yee"},
{"StudentId":"18328","Lattitude":"39.76629","Longittude":"-86.26233","StudentName":"Kelvin Alessandro Solis Duron"},
{"StudentId":"7219","Lattitude":"39.77428","Longittude":"-86.22909","StudentName":"Mikah Liam Morris"},
{"StudentId":"13324","Lattitude":"39.66905","Longittude":"-86.24966","StudentName":"Husni Ibrahim Hassan"},
{"StudentId":"7520","Lattitude":"39.76104981","Longittude":"-86.25762531","StudentName":"Paola Ramirez-Parra"},
{"StudentId":"18315","Lattitude":"39.76522","Longittude":"-86.2926","StudentName":"Jermyla De'Erica VanCleave"},
{"StudentId":"15611","Lattitude":"39.82029","Longittude":"-86.29106","StudentName":"Stephanie Oyinkansola Corzim-A"},
{"StudentId":"18144","Lattitude":"39.7258961","Longittude":"-86.24077118","StudentName":"Jasmine Mercado"},
{"StudentId":"7734","Lattitude":"39.80754","Longittude":"-86.31148","StudentName":"Paige M Allen"},
{"StudentId":"13162","Lattitude":"39.77668","Longittude":"-86.29913","StudentName":"Aaliyah Marie Jenae Taylor"},
{"StudentId":"8445","Lattitude":"39.78265","Longittude":"-86.25945","StudentName":"Julian Andrejs Tyson"},
{"StudentId":"18592","Lattitude":"39.76882","Longittude":"-86.31865","StudentName":"MaKayla Rose Brown"},
{"StudentId":"13446","Lattitude":"39.782","Longittude":"-86.30007","StudentName":"Raymond O Omoniyi"},
{"StudentId":"11564","Lattitude":"39.75938554","Longittude":"-86.28178076","StudentName":"Paige Roquet"},
{"StudentId":"4593","Lattitude":"39.7451","Longittude":"-86.25118","StudentName":"Aaron Ponce"},
{"StudentId":"8770","Lattitude":"39.80483","Longittude":"-86.3182","StudentName":"Connor Kuehl"},
{"StudentId":"18753","Lattitude":"39.76823","Longittude":"-86.31933","StudentName":"Cailyn Nicole Johnson"},
{"StudentId":"5309","Lattitude":"39.74662","Longittude":"-86.31931","StudentName":"Katherine Isabella Hernandez"},
{"StudentId":"11884","Lattitude":"39.79814","Longittude":"-86.31148","StudentName":"Addison Rushmore"},
{"StudentId":"17629","Lattitude":"39.74228","Longittude":"-86.32257","StudentName":"Jaylen Willis"},
{"StudentId":"16567","Lattitude":"39.73745","Longittude":"-86.32004","StudentName":"Kehinde Olamiposi Akinmade"},
{"StudentId":"5221","Lattitude":"39.81936","Longittude":"-86.29195","StudentName":"Dream Amore Turnley"},
{"StudentId":"16094","Lattitude":"39.82229","Longittude":"-86.28834","StudentName":"Caiden Butler"},
{"StudentId":"3107","Lattitude":"39.76675","Longittude":"-86.23874","StudentName":"Caleb Carrera"},
{"StudentId":"12700","Lattitude":"39.758451","Longittude":"-86.24003778","StudentName":"Getsemany J Zarate-Cueva"},
{"StudentId":"17316","Lattitude":"39.78779","Longittude":"-86.294","StudentName":"Kupree Danay Gilbert"},
{"StudentId":"8247","Lattitude":"39.86655","Longittude":"-86.24587","StudentName":"Dawn Hurns"},
{"StudentId":"13863","Lattitude":"39.75893","Longittude":"-86.24296","StudentName":"Emma Rose Burton"},
{"StudentId":"16019","Lattitude":"39.77836","Longittude":"-86.29915","StudentName":"Faith Dahodu"},
{"StudentId":"7756","Lattitude":"39.76625","Longittude":"-86.26126","StudentName":"Joshua M Riggs"},
{"StudentId":"19155","Lattitude":"39.79443","Longittude":"-86.3183","StudentName":"Sawyer Reed James"},
{"StudentId":"16934","Lattitude":"39.73888","Longittude":"-86.24993","StudentName":"Yeshia N Rosales"},
{"StudentId":"9729","Lattitude":"39.77031","Longittude":"-86.24587","StudentName":"Emanuel Mendez-Mendoza"},
{"StudentId":"14425","Lattitude":"39.80995","Longittude":"-86.27994","StudentName":"Alyssa Ann Tharp"},
{"StudentId":"4130","Lattitude":"39.77375","Longittude":"-86.2189","StudentName":"Braden Sedam"},
{"StudentId":"14115","Lattitude":"39.81272","Longittude":"-86.28658","StudentName":"Wilson A Cano Lopez"},
{"StudentId":"14902","Lattitude":"39.75201748","Longittude":"-86.25907607","StudentName":"Chase A Rivera"},
{"StudentId":"5714","Lattitude":"39.75757592","Longittude":"-86.28633755","StudentName":"Juan Jose Hernandez"},
{"StudentId":"7310","Lattitude":"39.76006","Longittude":"-86.27638","StudentName":"Javen Tae Williams"},
{"StudentId":"15547","Lattitude":"39.75860011","Longittude":"-86.22113948","StudentName":"Catori Eliza Easley"},
{"StudentId":"4217","Lattitude":"39.77323","Longittude":"-86.25565","StudentName":"Je'liyah Yahneise Pryor"},
{"StudentId":"14942","Lattitude":"39.82324","Longittude":"-86.26493","StudentName":"Alexia Nicole Rivera-Nunez"},
{"StudentId":"13202","Lattitude":"39.74922242","Longittude":"-86.25109929","StudentName":"Junior Alexander Bonilla-Diaz"},
{"StudentId":"17209","Lattitude":"39.79828","Longittude":"-86.2732","StudentName":"Tiwadola Nicole Babatunde-Akin"},
{"StudentId":"14486","Lattitude":"39.76154549","Longittude":"-86.27529308","StudentName":"Juan Vazquez"},
{"StudentId":"4455","Lattitude":"39.77634","Longittude":"-86.29365","StudentName":"Jae'l Washington-Griffin"},
{"StudentId":"15745","Lattitude":"39.81882","Longittude":"-86.31798","StudentName":"Ramona Eleanor Vaughn-Borneman"},
{"StudentId":"7441","Lattitude":"39.7933","Longittude":"-86.30807","StudentName":"Nitrell Mehki Reynolds"},
{"StudentId":"15783","Lattitude":"39.78139","Longittude":"-86.2853","StudentName":"Loryin Shenoa Sandoval Gonzale"},
{"StudentId":"13416","Lattitude":"39.76822","Longittude":"-86.32099","StudentName":"Jada Lynn Ellis"},
{"StudentId":"15219","Lattitude":"39.77626","Longittude":"-86.28982","StudentName":"Naya Raeann Sewell"},
{"StudentId":"11272","Lattitude":"39.77398","Longittude":"-86.25752","StudentName":"Natalie Rose Southworth"},
{"StudentId":"16570","Lattitude":"39.77201","Longittude":"-86.26465","StudentName":"Charles Earl Scott"},
{"StudentId":"4468","Lattitude":"39.75230326","Longittude":"-86.27585893","StudentName":"Adaleece Jean George"},
{"StudentId":"13559","Lattitude":"39.76182513","Longittude":"-86.26785942","StudentName":"Tyreke Jaheim Francis"},
{"StudentId":"17112","Lattitude":"39.79848","Longittude":"-86.30464","StudentName":"Annika June Schwer"},
{"StudentId":"16885","Lattitude":"39.80647","Longittude":"-86.30919","StudentName":"Sophia Irene Carrillo"},
{"StudentId":"6771","Lattitude":"39.81862","Longittude":"-86.2886","StudentName":"Akiya A Miller"},
{"StudentId":"18303","Lattitude":"39.7906","Longittude":"-86.32356","StudentName":"Sabastion Durham"},
{"StudentId":"7979","Lattitude":"39.72449786","Longittude":"-86.23920135","StudentName":"Dariana McCloud"},
{"StudentId":"6206","Lattitude":"39.76058935","Longittude":"-86.22753429","StudentName":"Madaline A Zuniga Bonilla"},
{"StudentId":"6021","Lattitude":"39.78789","Longittude":"-86.28606","StudentName":"Valerie Valdez"},
{"StudentId":"15263","Lattitude":"39.74099524","Longittude":"-86.24618479","StudentName":"Daniela Fernandez"},
{"StudentId":"19553","Lattitude":"39.73801","Longittude":"-86.32608","StudentName":"Kylie Elizabeth Suter"},
{"StudentId":"17513","Lattitude":"39.80996","Longittude":"-86.31216","StudentName":"Langdon Scott Hicks"},
{"StudentId":"5179","Lattitude":"39.73629","Longittude":"-86.32567","StudentName":"A'myiah Olivia Brown"},
{"StudentId":"8092","Lattitude":"39.73953","Longittude":"-86.31186","StudentName":"Stefany Naomi Ruiz-Ochoa"},
{"StudentId":"8665","Lattitude":"39.76759","Longittude":"-86.32336","StudentName":"Gabriel Jesus Altamirano-Perez"},
{"StudentId":"14997","Lattitude":"39.78733","Longittude":"-86.20283","StudentName":"Jeremiah Taylor"},
{"StudentId":"3226","Lattitude":"39.78172","Longittude":"-86.31709","StudentName":"Magdalene Maria Koukouris"},
{"StudentId":"8141","Lattitude":"39.78265","Longittude":"-86.25945","StudentName":"Arabella Hope Tyson"},
{"StudentId":"5552","Lattitude":"39.80947","Longittude":"-86.2853","StudentName":"Melloni Nevaeh Maxine Washingt"},
{"StudentId":"4151","Lattitude":"39.72622689","Longittude":"-86.24284512","StudentName":"Cristian Alberto Orellana Reye"},
{"StudentId":"13344","Lattitude":"39.77402","Longittude":"-86.32554","StudentName":"Ryan Casanova-Ortega"},
{"StudentId":"17489","Lattitude":"39.79807","Longittude":"-86.27707","StudentName":"Luke Isaac Mosley"},
{"StudentId":"5981","Lattitude":"39.81028","Longittude":"-86.29439","StudentName":"Harmoni Marie Merrill"},
{"StudentId":"4067","Lattitude":"39.78364","Longittude":"-86.32276","StudentName":"Jerren Moody-Byrd"},
{"StudentId":"4488","Lattitude":"39.76239175","Longittude":"-86.26727024","StudentName":"Hassanie O Mahamat"},
{"StudentId":"5759","Lattitude":"39.74970198","Longittude":"-86.25696105","StudentName":"Brandon Denilson Escobar Mejia"},
{"StudentId":"4809","Lattitude":"39.77319","Longittude":"-86.29916","StudentName":"Lorencia Cartwright"},
{"StudentId":"14404","Lattitude":"39.75947","Longittude":"-86.28315","StudentName":"Antonio Lopez-Giron"},
{"StudentId":"3876","Lattitude":"39.77505","Longittude":"-86.29989","StudentName":"Serene Onjola Osineye"},
{"StudentId":"7254","Lattitude":"39.7361","Longittude":"-86.31128","StudentName":"Liliana Everhart"},
{"StudentId":"8583","Lattitude":"39.79721","Longittude":"-86.31941","StudentName":"Briana Aignae Weathers"},
{"StudentId":"17831","Lattitude":"39.75866511","Longittude":"-86.22492393","StudentName":"Samantha Alejandra Prado-Avila"},
{"StudentId":"19085","Lattitude":"39.77396","Longittude":"-86.25448","StudentName":"Jaquelin Kelly Albanil-Garcia"},
{"StudentId":"9547","Lattitude":"39.79689","Longittude":"-86.29941","StudentName":"Christina Lynn Daniel"},
{"StudentId":"13441","Lattitude":"39.79747","Longittude":"-86.30043","StudentName":"Andrese LaMont Graves"},
{"StudentId":"9469","Lattitude":"39.75745352","Longittude":"-86.23051126","StudentName":"Allison Jasmine Melendez"},
{"StudentId":"12948","Lattitude":"39.76213","Longittude":"-86.24606","StudentName":"Dustin Quick"},
{"StudentId":"17481","Lattitude":"39.78495","Longittude":"-86.32015","StudentName":"Evan Lamont Petty"},
{"StudentId":"18181","Lattitude":"39.74662","Longittude":"-86.31931","StudentName":"Iker Alexander Hernandez"},
{"StudentId":"6353","Lattitude":"39.77013","Longittude":"-86.26777","StudentName":"Oluwadolabomi Raquel Ayininuol"},
{"StudentId":"16584","Lattitude":"39.78944","Longittude":"-86.32005","StudentName":"Madison Leigh Lay"},
{"StudentId":"6040","Lattitude":"39.72752678","Longittude":"-86.21426373","StudentName":"Taylor Renee Wood"},
{"StudentId":"17289","Lattitude":"39.78027","Longittude":"-86.29967","StudentName":"Robert Lee Casanova Burns"},
{"StudentId":"5429","Lattitude":"39.80986","Longittude":"-86.28551","StudentName":"Alexandra Contreras Leiva"},
{"StudentId":"16468","Lattitude":"39.72021411","Longittude":"-86.25364693","StudentName":"Payton Wayne James Garner"},
{"StudentId":"11712","Lattitude":"39.77708","Longittude":"-86.29313","StudentName":"Kelsie T Walker"},
{"StudentId":"8939","Lattitude":"39.725953","Longittude":"-86.25473","StudentName":"Colton Kristopher Jose Hunter"},
{"StudentId":"14554","Lattitude":"39.78859","Longittude":"-86.28433","StudentName":"Caiden Micahel Apodaca"},
{"StudentId":"12597","Lattitude":"39.73992","Longittude":"-86.24781","StudentName":"Alexavier Salazar"},
{"StudentId":"15729","Lattitude":"39.75536741","Longittude":"-86.27324387","StudentName":"MaJenta Jasa LaBroi"},
{"StudentId":"3386","Lattitude":"39.77376","Longittude":"-86.26325","StudentName":"Latifat A Badmus"},
{"StudentId":"13500","Lattitude":"39.82029","Longittude":"-86.29106","StudentName":"Mar NER Sher"},
{"StudentId":"15160","Lattitude":"39.77418","Longittude":"-86.25465","StudentName":"Cristopher Pineda- Bonilla"},
{"StudentId":"17925","Lattitude":"39.77793","Longittude":"-86.25593","StudentName":"Pelumi Rahman Adebowale"},
{"StudentId":"7230","Lattitude":"39.74611776","Longittude":"-86.21448923","StudentName":"Levii Stone Ferguson"},
{"StudentId":"10404","Lattitude":"39.76542","Longittude":"-86.25617","StudentName":"Waylyn R Alfs"},
{"StudentId":"16771","Lattitude":"39.74396319","Longittude":"-86.21447033","StudentName":"Hadassa Palacios-Estrada"},
{"StudentId":"4343","Lattitude":"39.81698","Longittude":"-86.29379","StudentName":"Nathalie Briana Bustamante"},
{"StudentId":"10830","Lattitude":"39.78453","Longittude":"-86.27236","StudentName":"Carlos Jose Gregorio"},
{"StudentId":"18883","Lattitude":"39.76033","Longittude":"-86.28405","StudentName":"Ifeoluwa Promise Akinbobola"},
{"StudentId":"4611","Lattitude":"39.77418","Longittude":"-86.25465","StudentName":"Jordan Gary"},
{"StudentId":"10099","Lattitude":"39.80605","Longittude":"-86.32581","StudentName":"Malik Nasir Mayfield"},
{"StudentId":"7170","Lattitude":"39.79554","Longittude":"-86.27806","StudentName":"Korala Lillian Mechuta"},
{"StudentId":"12904","Lattitude":"39.77837","Longittude":"-86.32388","StudentName":"Zayan Waseem Baig"},
{"StudentId":"9975","Lattitude":"39.74739575","Longittude":"-86.278963","StudentName":"Alexa Nikole Logan"},
{"StudentId":"13668","Lattitude":"39.75770941","Longittude":"-86.25264197","StudentName":"Kierre J Sanders"},
{"StudentId":"18567","Lattitude":"39.78051","Longittude":"-86.29899","StudentName":"Isaiah L Dozier"},
{"StudentId":"16110","Lattitude":"39.77179","Longittude":"-86.29921","StudentName":"Malaya Hawkins"},
{"StudentId":"11049","Lattitude":"39.72772","Longittude":"-86.24081","StudentName":"Lexsie Izabella Gonzalez"},
{"StudentId":"6894","Lattitude":"39.75294","Longittude":"-86.25709","StudentName":"Guadalupe Cruz-Hernandez"},
{"StudentId":"4899","Lattitude":"39.75465991","Longittude":"-86.28331308","StudentName":"Aaden Christophe Rice"},
{"StudentId":"9283","Lattitude":"39.75872987","Longittude":"-86.27840283","StudentName":"Justin Aguirre-Duran"},
{"StudentId":"10513","Lattitude":"39.72845153","Longittude":"-86.228348","StudentName":"Annahbellah Marie Renee Brown"},
{"StudentId":"5999","Lattitude":"39.74159","Longittude":"-86.32334","StudentName":"Zyen Spears"},
{"StudentId":"14974","Lattitude":"39.78399","Longittude":"-86.25898","StudentName":"Morgan Boluwatife Babalola"},
{"StudentId":"13944","Lattitude":"39.77558","Longittude":"-86.29208","StudentName":"Jazmine Neriah Nelson"},
{"StudentId":"9599","Lattitude":"39.7397691","Longittude":"-86.24561335","StudentName":"Mason D Maze"},
{"StudentId":"14400","Lattitude":"39.77918","Longittude":"-86.11648","StudentName":"Tisha Harris"},
{"StudentId":"16894","Lattitude":"39.78163","Longittude":"-86.29922","StudentName":"Tamara Cheree Pirtle"},
{"StudentId":"15680","Lattitude":"39.77451","Longittude":"-86.26884","StudentName":"Bolaji Ladele"},
{"StudentId":"9948","Lattitude":"39.77689","Longittude":"-86.29559","StudentName":"Jaden Andre Coble"},
{"StudentId":"11702","Lattitude":"39.81735","Longittude":"-86.14329","StudentName":"Addison Grace Stevens"},
{"StudentId":"3879","Lattitude":"39.77049","Longittude":"-86.31543","StudentName":"Cheyenne Ellen Scroggins"},
{"StudentId":"15741","Lattitude":"39.81188","Longittude":"-86.3037","StudentName":"Jaylen Juel Johnson"},
{"StudentId":"12200","Lattitude":"39.73578","Longittude":"-86.24596","StudentName":"Jaxton Wayne Davis"},
{"StudentId":"16851","Lattitude":"39.77526","Longittude":"-86.26939","StudentName":"Eniola Quadri Oyinloye"},
{"StudentId":"8198","Lattitude":"39.77301","Longittude":"-86.2659","StudentName":"Yareli Gonzalez"},
{"StudentId":"7083","Lattitude":"39.72288966","Longittude":"-86.24310497","StudentName":"Markus Anthony Furlani"},
{"StudentId":"14505","Lattitude":"39.78349","Longittude":"-86.30889","StudentName":"Airik Michael Alfaro"},
{"StudentId":"8619","Lattitude":"39.78116","Longittude":"-86.27789","StudentName":"Yandel Hernandez"},
{"StudentId":"10388","Lattitude":"39.76229","Longittude":"-86.26698","StudentName":"Yadira Judith Euceda Useda"},
{"StudentId":"14090","Lattitude":"39.72274156","Longittude":"-86.22830033","StudentName":"JAMES WATSON"},
{"StudentId":"11981","Lattitude":"39.8086","Longittude":"-86.28554","StudentName":"Johnny Tillison Bryant"},
{"StudentId":"5458","Lattitude":"39.75192734","Longittude":"-86.26337602","StudentName":"Erin D Hanley"},
{"StudentId":"19202","Lattitude":"39.77611","Longittude":"-86.29704","StudentName":"Keylin Micheal Ra Hampton"},
{"StudentId":"15166","Lattitude":"39.74865","Longittude":"-86.31168","StudentName":"Savannah Renee Hollinghead"},
{"StudentId":"6401","Lattitude":"39.75409868","Longittude":"-86.28279433","StudentName":"Daion Armon Emerson"},
{"StudentId":"4121","Lattitude":"39.75446774","Longittude":"-86.28331207","StudentName":"Rhiannon Nickole Phillips"},
{"StudentId":"14316","Lattitude":"39.78162","Longittude":"-86.29896","StudentName":"Josiah Praxidio Rarugal"},
{"StudentId":"13766","Lattitude":"39.7721","Longittude":"-86.25537","StudentName":"Anahi Anestoso-Aceves"},
{"StudentId":"8339","Lattitude":"39.77704","Longittude":"-86.29991","StudentName":"Oluwatobiloba Emmanuel Ajose"},
{"StudentId":"8593","Lattitude":"39.80898","Longittude":"-86.28651","StudentName":"Michael Ray Anthony"},
{"StudentId":"18122","Lattitude":"39.76943","Longittude":"-86.28108","StudentName":"Klayton Arnell Wilson"},
{"StudentId":"4910","Lattitude":"39.77451","Longittude":"-86.25529","StudentName":"Paige Bailey"},
{"StudentId":"13895","Lattitude":"39.76016","Longittude":"-86.22266","StudentName":"Bryx Henry Landis Purdy"},
{"StudentId":"7263","Lattitude":"39.81713","Longittude":"-86.2773","StudentName":"Rodney Jacquel Brown"},
{"StudentId":"8653","Lattitude":"39.81172","Longittude":"-86.29313","StudentName":"Ariyanna Nicole Dawson"},
{"StudentId":"7802","Lattitude":"39.7345","Longittude":"-86.31811","StudentName":"Deacon Randy James DeMoss"},
{"StudentId":"11158","Lattitude":"39.79914","Longittude":"-86.31402","StudentName":"Juan Manuel Coronel-Romero"},
{"StudentId":"9717","Lattitude":"39.73716939","Longittude":"-86.24657878","StudentName":"Jenna Diane Siens"},
{"StudentId":"8606","Lattitude":"39.7538","Longittude":"-86.26032","StudentName":"Laila K Rogers"},
{"StudentId":"8933","Lattitude":"39.77351","Longittude":"-86.29984","StudentName":"Oluwafeyikemi Oni"},
{"StudentId":"16224","Lattitude":"39.75318","Longittude":"-86.26336","StudentName":"Johansy Maribel Canales Diego"},
{"StudentId":"18668","Lattitude":"39.77643","Longittude":"-86.30013","StudentName":"Kayden Brown"},
{"StudentId":"6547","Lattitude":"39.79232","Longittude":"-86.27885","StudentName":"Destin J Beauchamp"},
{"StudentId":"7627","Lattitude":"39.78411","Longittude":"-86.32254","StudentName":"William Snyder"},
{"StudentId":"12857","Lattitude":"39.81474","Longittude":"-86.28486","StudentName":"Aneotzy Daniel Rodriguez"},
{"StudentId":"6055","Lattitude":"39.77549","Longittude":"-86.26536","StudentName":"Madai Flores-Urieta"},
{"StudentId":"9589","Lattitude":"39.82157","Longittude":"-86.28632","StudentName":"Alonso Carmona"},
{"StudentId":"9591","Lattitude":"39.82168","Longittude":"-86.28707","StudentName":"Misael Enrique Bretado Payan"},
{"StudentId":"6119","Lattitude":"39.75262","Longittude":"-86.25975","StudentName":"Johnny Nathaniel Donta Fields"},
{"StudentId":"14331","Lattitude":"39.7835","Longittude":"-86.31785","StudentName":"Addison Owens"},
{"StudentId":"4975","Lattitude":"39.76100407","Longittude":"-86.22037892","StudentName":"Tyson M Donaldson"},
{"StudentId":"19178","Lattitude":"39.82444","Longittude":"-86.09409","StudentName":"Lyrica Rush"},
{"StudentId":"3462","Lattitude":"39.77467","Longittude":"-86.26691","StudentName":"Oluwatobi Temitope Aluko"},
{"StudentId":"7847","Lattitude":"39.76796","Longittude":"-86.26927","StudentName":"James Wilbur Payson"},
{"StudentId":"5694","Lattitude":"39.79925","Longittude":"-86.30207","StudentName":"Reese Nichole Kent"},
{"StudentId":"16650","Lattitude":"39.72520482","Longittude":"-86.22958462","StudentName":"James Lee Roy Hall"},
{"StudentId":"11550","Lattitude":"39.81648","Longittude":"-86.29205","StudentName":"Jazmin Hernandez-Aguilar"},
{"StudentId":"5162","Lattitude":"39.81868","Longittude":"-86.24589","StudentName":"Legend Andrew-Dwayne Taylor"},
{"StudentId":"8658","Lattitude":"39.80884","Longittude":"-86.2367","StudentName":"Lilly M Kelso"},
{"StudentId":"18247","Lattitude":"39.78598","Longittude":"-86.31526","StudentName":"Deon Keys"},
{"StudentId":"7913","Lattitude":"39.73500909","Longittude":"-86.24195064","StudentName":"Tristan Houck"},
{"StudentId":"14871","Lattitude":"39.7912","Longittude":"-86.28265","StudentName":"Nevaeh Omni Williams"},
{"StudentId":"13856","Lattitude":"39.73013289","Longittude":"-86.22719271","StudentName":"Isabella Elana Hughes"},
{"StudentId":"10802","Lattitude":"39.80801","Longittude":"-86.2804","StudentName":"La'Trell Stewart"},
{"StudentId":"18619","Lattitude":"39.82181","Longittude":"-86.29069","StudentName":"Hak Ademola Adio Abayomi"},
{"StudentId":"11398","Lattitude":"39.76010934","Longittude":"-86.22955156","StudentName":"Rusty Wilson"},
{"StudentId":"15621","Lattitude":"39.75383906","Longittude":"-86.26047535","StudentName":"Akeelah Linda Rene Hatchett"},
{"StudentId":"6172","Lattitude":"39.7473371","Longittude":"-86.27915437","StudentName":"Kaylee Michele Logsdon"},
{"StudentId":"9549","Lattitude":"39.55358","Longittude":"-86.37825","StudentName":"Summer Connell"},
{"StudentId":"10450","Lattitude":"39.7561595","Longittude":"-86.25966379","StudentName":"Cayden Thomas Kemp"},
{"StudentId":"3880","Lattitude":"39.74800018","Longittude":"-86.27714039","StudentName":"Christopher Alejandro Chavez"},
{"StudentId":"12711","Lattitude":"39.77112","Longittude":"-86.26757","StudentName":"Matthew Avila Gutierrez"},
{"StudentId":"17618","Lattitude":"39.77708","Longittude":"-86.20619","StudentName":"D'Marcius Aries Laqu Pipes"},
{"StudentId":"18011","Lattitude":"39.86333","Longittude":"-86.19505","StudentName":"Cortney C Flynn"},
{"StudentId":"17573","Lattitude":"39.80476","Longittude":"-86.30831","StudentName":"Dania London Royster"},
{"StudentId":"3080","Lattitude":"39.76082329","Longittude":"-86.23125473","StudentName":"Aracely Avila Hermosillo"},
{"StudentId":"9596","Lattitude":"39.79723","Longittude":"-86.29849","StudentName":"Kaiden Anthony Cole"},
{"StudentId":"13961","Lattitude":"39.7315146","Longittude":"-86.23140362","StudentName":"Jace Dewayne Hess"},
{"StudentId":"17615","Lattitude":"39.80113","Longittude":"-86.31373","StudentName":"Ricky Butler"},
{"StudentId":"8481","Lattitude":"39.76223373","Longittude":"-86.28484452","StudentName":"Deanna Olivia Carrera"},
{"StudentId":"9059","Lattitude":"39.78066","Longittude":"-86.32151","StudentName":"N'Ryah Robyn Spearman"},
{"StudentId":"16807","Lattitude":"39.75552","Longittude":"-86.28099","StudentName":"Elizabeth Massiel Gutierrez-So"},
{"StudentId":"7458","Lattitude":"39.76941","Longittude":"-86.2526","StudentName":"Azaeis Jeremiah Miner"},
{"StudentId":"17152","Lattitude":"39.75823","Longittude":"-86.28735","StudentName":"Tyiana Chanay Johnson"},
{"StudentId":"4781","Lattitude":"39.75822678","Longittude":"-86.26348434","StudentName":"Nevaeh Taniyah Clemmons"},
{"StudentId":"18134","Lattitude":"39.74167","Longittude":"-86.31085","StudentName":"Yoskar Antonio Sandoval"},
{"StudentId":"6574","Lattitude":"39.76497","Longittude":"-86.31941","StudentName":"Orlando Pinto Portillo"},
{"StudentId":"15494","Lattitude":"39.77334","Longittude":"-86.2782","StudentName":"Edrick Olan"},
{"StudentId":"9863","Lattitude":"39.77115","Longittude":"-86.26717","StudentName":"Oluwapelumi Akinremi"},
{"StudentId":"15032","Lattitude":"39.74734688","Longittude":"-86.27912248","StudentName":"Azarriel Lynnae Williams"},
{"StudentId":"17812","Lattitude":"39.79049","Longittude":"-86.32342","StudentName":"Zoee Alaylah Major"},
{"StudentId":"12771","Lattitude":"39.76545","Longittude":"-86.23642","StudentName":"Manuel Medina"},
{"StudentId":"3382","Lattitude":"39.80625","Longittude":"-86.29264","StudentName":"Sophia Marcov"},
{"StudentId":"12135","Lattitude":"39.75978192","Longittude":"-86.23828436","StudentName":"Diego Enrique Castaneda"},
{"StudentId":"16622","Lattitude":"39.81134","Longittude":"-85.96095","StudentName":"Jazmin L Jackson"},
{"StudentId":"9458","Lattitude":"39.76726","Longittude":"-86.26654","StudentName":"Kayden Emery Exantus"},
{"StudentId":"19079","Lattitude":"39.75978","Longittude":"-86.23203","StudentName":"Lesly G Diaz Soto"},
{"StudentId":"18445","Lattitude":"39.78958","Longittude":"-86.27293","StudentName":"Aliyah Giselle Vines"},
{"StudentId":"2893","Lattitude":"39.81749","Longittude":"-86.27679","StudentName":"Sloane Gray Stanley"},
{"StudentId":"12599","Lattitude":"39.75255042","Longittude":"-86.26217664","StudentName":"Ervin Mapp"},
{"StudentId":"19181","Lattitude":"39.72814937","Longittude":"-86.24303544","StudentName":"Bentley Alan Higgins"},
{"StudentId":"6395","Lattitude":"39.74418","Longittude":"-86.28367","StudentName":"Alexander Medina-Ramos"},
{"StudentId":"8271","Lattitude":"39.75935","Longittude":"-86.25053","StudentName":"Zaida Yamileth Zarate Moreno"},
{"StudentId":"19505","Lattitude":"39.78168","Longittude":"-86.32456","StudentName":"Jose Daniel Fuentes-Gonzalez"},
{"StudentId":"15878","Lattitude":"39.77486","Longittude":"-86.32593","StudentName":"Joseph Adam Lucas"},
{"StudentId":"5595","Lattitude":"39.73897","Longittude":"-86.31209","StudentName":"Madilynn Sue Sorrels-Gilbert"},
{"StudentId":"14744","Lattitude":"39.81063","Longittude":"-86.15101","StudentName":"Maurice Miguel Shively"},
{"StudentId":"5190","Lattitude":"39.75307576","Longittude":"-86.24081958","StudentName":"Jairo Ramirez-Leyva"},
{"StudentId":"4030","Lattitude":"39.75357305","Longittude":"-86.24189054","StudentName":"Carlos Manuel Cruz"},
{"StudentId":"8432","Lattitude":"39.78251","Longittude":"-86.31832","StudentName":"Timothy Montrelle Parker"},
{"StudentId":"6927","Lattitude":"39.78258","Longittude":"-86.25746","StudentName":"Tierney Devonn Willis"},
{"StudentId":"9988","Lattitude":"39.81904","Longittude":"-86.27657","StudentName":"LaDon Maurice Jemison"},
{"StudentId":"6721","Lattitude":"39.73860637","Longittude":"-86.24992687","StudentName":"Catalina Veranice Gallegos"},
{"StudentId":"10555","Lattitude":"39.82659","Longittude":"-86.2654","StudentName":"Eddi Guillen Macedonio"},
{"StudentId":"7896","Lattitude":"39.74429","Longittude":"-86.32545","StudentName":"Itzel Ariana Galindo-Cordero"},
{"StudentId":"15571","Lattitude":"39.75249","Longittude":"-86.275","StudentName":"Carol Camila Moreno-Cordero"},
{"StudentId":"17367","Lattitude":"39.753765","Longittude":"-86.22864343","StudentName":"Hayden Tyler Swigart"},
{"StudentId":"2913","Lattitude":"39.73014259","Longittude":"-86.22552164","StudentName":"Alexa Jezabel Gallegos-Carrill"},
{"StudentId":"4882","Lattitude":"39.7843254","Longittude":"-86.3221277","StudentName":"Karyssa Yee"},
{"StudentId":"6215","Lattitude":"39.7525","Longittude":"-86.26062","StudentName":"Elijah Levi Brown"},
{"StudentId":"5384","Lattitude":"39.77021","Longittude":"-86.26617","StudentName":"De'Andria La'Shae Brown"},
{"StudentId":"5038","Lattitude":"39.75465968","Longittude":"-86.27491983","StudentName":"Adam Xavier Savage"},
{"StudentId":"5104","Lattitude":"39.73668","Longittude":"-86.24479","StudentName":"Jade Yamileth Velasquez"},
{"StudentId":"4570","Lattitude":"39.77484","Longittude":"-86.30019","StudentName":"Mathew Desmond Omonehin"},
{"StudentId":"8174","Lattitude":"39.74814781","Longittude":"-86.28034394","StudentName":"Anthony G Robinson"},
{"StudentId":"17589","Lattitude":"39.75335063","Longittude":"-86.25708876","StudentName":"Nevaeh Marie Foster"},
{"StudentId":"16026","Lattitude":"39.74152","Longittude":"-86.24694","StudentName":"Brooklyn H Harris"},
{"StudentId":"3545","Lattitude":"39.73835","Longittude":"-86.3092","StudentName":"Abigail Veloz"},
{"StudentId":"13072","Lattitude":"39.78838","Longittude":"-86.27873","StudentName":"Alejandro Lopez"},
{"StudentId":"18398","Lattitude":"39.76269088","Longittude":"-86.28112434","StudentName":"Karleigh Jones"},
{"StudentId":"5988","Lattitude":"39.74254","Longittude":"-86.31088","StudentName":"Anderson Ismari Alas-Galdamez"},
{"StudentId":"10937","Lattitude":"39.78326","Longittude":"-86.30975","StudentName":"Inioluwa Blessed Falope"},
{"StudentId":"3871","Lattitude":"39.72134368","Longittude":"-86.24614759","StudentName":"Sophia Isabella Landau"},
{"StudentId":"8318","Lattitude":"39.8095","Longittude":"-86.30057","StudentName":"Angel Simileoluwa F Ademodi"},
{"StudentId":"11800","Lattitude":"39.81129","Longittude":"-86.30424","StudentName":"Denzel Sully Gray"},
{"StudentId":"10153","Lattitude":"39.75943394","Longittude":"-86.25907766","StudentName":"Maquela Rosa Marie Arvizu"},
{"StudentId":"9479","Lattitude":"39.80798","Longittude":"-86.31074","StudentName":"Alaya S King"},
{"StudentId":"10661","Lattitude":"39.75969","Longittude":"-86.27037","StudentName":"Blakely Elizabeth Mills"},
{"StudentId":"14314","Lattitude":"39.74168","Longittude":"-86.3111","StudentName":"Noah Daniel Skipper"},
{"StudentId":"4169","Lattitude":"39.77296","Longittude":"-86.2664","StudentName":"Olanrewaju Emmanuel Sodunke"},
{"StudentId":"15824","Lattitude":"39.76142517","Longittude":"-86.24009798","StudentName":"Celina L Angeles"},
{"StudentId":"11471","Lattitude":"39.78952","Longittude":"-86.32156","StudentName":"Gabriel Paul Bruder"},
{"StudentId":"14104","Lattitude":"39.82226","Longittude":"-86.29646","StudentName":"Irving Daniel Anastacio"},
{"StudentId":"18988","Lattitude":"39.78371","Longittude":"-86.32304","StudentName":"Gracie Marie Lynn Jackson"},
{"StudentId":"6173","Lattitude":"39.77726","Longittude":"-86.29443","StudentName":"Anasti Jei'Nese Price"},
{"StudentId":"17394","Lattitude":"39.78163","Longittude":"-86.29866","StudentName":"Savannah Love Smith"},
{"StudentId":"18081","Lattitude":"39.81026","Longittude":"-86.28238","StudentName":"Giovanni Velasquez"},
{"StudentId":"9220","Lattitude":"39.81801","Longittude":"-86.37105","StudentName":"Alexander Shimer"},
{"StudentId":"10454","Lattitude":"39.78633","Longittude":"-86.27702","StudentName":"Raynelis Classen Classen-Corte"},
{"StudentId":"6225","Lattitude":"39.79183","Longittude":"-86.27157","StudentName":"Westley Malea Vanleer"},
{"StudentId":"16275","Lattitude":"39.78567","Longittude":"-86.3161","StudentName":"Megan Marie Carnes"},
{"StudentId":"10822","Lattitude":"39.72157851","Longittude":"-86.24367826","StudentName":"Mason Eugene Schrader"},
{"StudentId":"16716","Lattitude":"39.79037","Longittude":"-86.32197","StudentName":"Naima Revae Dillon"},
{"StudentId":"9672","Lattitude":"39.77386","Longittude":"-86.27907","StudentName":"Jaselle Hennessy Hernandez"},
{"StudentId":"10295","Lattitude":"39.78985","Longittude":"-86.28382","StudentName":"Madison Carol Weeden"},
{"StudentId":"8620","Lattitude":"39.81379","Longittude":"-86.26242","StudentName":"Elizabeth Santiago"},
{"StudentId":"3233","Lattitude":"39.7805","Longittude":"-86.29941","StudentName":"Angel Daniel Torres"},
{"StudentId":"8382","Lattitude":"39.78443","Longittude":"-86.32608","StudentName":"Aniyia Monea Johnson"},
{"StudentId":"6170","Lattitude":"39.74858","Longittude":"-86.25431","StudentName":"Isabella Jade Brooks"},
{"StudentId":"5629","Lattitude":"39.75354315","Longittude":"-86.2606551","StudentName":"Cheltz Peyton"},
{"StudentId":"14782","Lattitude":"39.78798","Longittude":"-86.31313","StudentName":"Setrell Lee Cannon"},
{"StudentId":"12541","Lattitude":"39.81917","Longittude":"-86.27761","StudentName":"Montez T Thompson"},
{"StudentId":"12678","Lattitude":"39.78389","Longittude":"-86.3206","StudentName":"Rayne Saryiah Da McGowan"},
{"StudentId":"16793","Lattitude":"39.79001","Longittude":"-86.32215","StudentName":"Jordan Paolo Lopez- Achulli"},
{"StudentId":"18644","Lattitude":"39.82178","Longittude":"-86.325","StudentName":"Sami Noubhani"},
{"StudentId":"16956","Lattitude":"39.75603904","Longittude":"-86.24507849","StudentName":"Albertano Jose Colunga"},
{"StudentId":"8559","Lattitude":"39.73801","Longittude":"-86.31959","StudentName":"Joshua Ryan Nunley II"},
{"StudentId":"13810","Lattitude":"39.82091","Longittude":"-86.28641","StudentName":"Clarence Bernard Williams"},
{"StudentId":"19446","Lattitude":"39.81473","Longittude":"-86.28508","StudentName":"Brittany Sanchez"},
{"StudentId":"5834","Lattitude":"39.76008381","Longittude":"-86.2763794","StudentName":"Dayana Huizar Castaneda"},
{"StudentId":"9366","Lattitude":"39.80735","Longittude":"-86.3241","StudentName":"Justice Dior Moffett"},
{"StudentId":"13979","Lattitude":"39.7763","Longittude":"-86.29034","StudentName":"Emily Santiago-Hernandez"},
{"StudentId":"15060","Lattitude":"39.74662","Longittude":"-86.24807","StudentName":"Geily Michelle Zapata Mendez"},
{"StudentId":"4697","Lattitude":"39.77266","Longittude":"-86.32596","StudentName":"Nathanael Allen Terhune"},
{"StudentId":"19305","Lattitude":"39.74852","Longittude":"-86.27399","StudentName":"Vivian S Jimenez"},
{"StudentId":"17569","Lattitude":"39.81073","Longittude":"-86.21749","StudentName":"Vivian Jeanette Bracey"},
{"StudentId":"11369","Lattitude":"39.80049","Longittude":"-86.30423","StudentName":"Kailan F Keith"},
{"StudentId":"10413","Lattitude":"39.77853","Longittude":"-86.29915","StudentName":"Jevon Guess"},
{"StudentId":"11192","Lattitude":"39.82148","Longittude":"-86.27761","StudentName":"Atyon McGee"},
{"StudentId":"5379","Lattitude":"39.77236","Longittude":"-86.25315","StudentName":"Steven Alexander Madrid Rodas"},
{"StudentId":"14264","Lattitude":"39.74554","Longittude":"-86.32474","StudentName":"Faheesat Alase-Makanjuola"},
{"StudentId":"4505","Lattitude":"39.79558","Longittude":"-86.27872","StudentName":"Cade Justice Thompson"},
{"StudentId":"17539","Lattitude":"39.77474","Longittude":"-86.28513","StudentName":"Dylan Hart"},
{"StudentId":"17642","Lattitude":"39.77609","Longittude":"-86.29478","StudentName":"Marquan Adam Ford"},
{"StudentId":"17962","Lattitude":"39.78338","Longittude":"-86.25451","StudentName":"Baleighan Jason Canatsey Birt"},
{"StudentId":"15550","Lattitude":"39.74464","Longittude":"-86.25057","StudentName":"Jimmy Dale Woods"},
{"StudentId":"13208","Lattitude":"39.77095","Longittude":"-86.31926","StudentName":"Julia Ayala-Sanchez"},
{"StudentId":"5535","Lattitude":"39.74980495","Longittude":"-86.21729641","StudentName":"Cody Allen Noel"},
{"StudentId":"18327","Lattitude":"39.75785","Longittude":"-86.25653","StudentName":"Gerardo Angel Gomez-Merecias"},
{"StudentId":"17313","Lattitude":"39.74478922","Longittude":"-86.2133325","StudentName":"Joshua'Michael Chase Fulbright"},
{"StudentId":"5704","Lattitude":"39.79678","Longittude":"-86.30462","StudentName":"Shaian Joleene Hutcheson"},
{"StudentId":"5991","Lattitude":"39.8169","Longittude":"-86.29054","StudentName":"D'Angelo Andrew Carrera"},
{"StudentId":"13790","Lattitude":"39.76694","Longittude":"-86.31188","StudentName":"Ehlodie Elaura Hay"},
{"StudentId":"6298","Lattitude":"39.77718","Longittude":"-86.27711","StudentName":"Tyree LeeAnthony Young"},
{"StudentId":"8300","Lattitude":"39.74462548","Longittude":"-86.21447616","StudentName":"Bradley Jay Ross"},
{"StudentId":"7132","Lattitude":"39.7824","Longittude":"-86.28589","StudentName":"Eric Brown"},
{"StudentId":"16445","Lattitude":"39.7559551","Longittude":"-86.28091243","StudentName":"Diana Z William"},
{"StudentId":"15336","Lattitude":"39.77475","Longittude":"-86.2674","StudentName":"Javion Lanell Thomas"},
{"StudentId":"19105","Lattitude":"39.81795","Longittude":"-86.2966","StudentName":"Aaliyah Renee Evans"},
{"StudentId":"9535","Lattitude":"39.75843","Longittude":"-86.32033","StudentName":"Dennis White"},
{"StudentId":"12849","Lattitude":"39.75178538","Longittude":"-86.23887951","StudentName":"Harmony Jade Jines"},
{"StudentId":"13795","Lattitude":"39.74854151","Longittude":"-86.24683772","StudentName":"Darrian Michael Taylor"},
{"StudentId":"8317","Lattitude":"39.80735","Longittude":"-86.3241","StudentName":"Jour'nee Amare Arila"},
{"StudentId":"17193","Lattitude":"39.75029","Longittude":"-86.27405","StudentName":"Matthew Dominick Chacon-Trejo"},
{"StudentId":"10928","Lattitude":"39.77","Longittude":"-86.25716","StudentName":"Luis Alan Duran-Carballo"},
{"StudentId":"7665","Lattitude":"39.75984","Longittude":"-86.27977","StudentName":"Gwendlyn Mae Brooks"},
{"StudentId":"5609","Lattitude":"39.74612","Longittude":"-86.27552","StudentName":"Mya Geanae Morgan"},
{"StudentId":"18955","Lattitude":"39.78185","Longittude":"-86.30851","StudentName":"Donovan Eli Roberts"},
{"StudentId":"10264","Lattitude":"39.76731306","Longittude":"-86.23872353","StudentName":"EJ Horacio Barnes"},
{"StudentId":"15849","Lattitude":"39.77546","Longittude":"-86.26648","StudentName":"Katherine Nicole Duglas Gabarr"},
{"StudentId":"8028","Lattitude":"39.75844079","Longittude":"-86.22915023","StudentName":"Zaiden Michael Griffin"},
{"StudentId":"12474","Lattitude":"39.74611","Longittude":"-86.26345","StudentName":"Paola Esmeralda Guity Zelaya"},
{"StudentId":"10134","Lattitude":"39.7456218","Longittude":"-86.26211621","StudentName":"Hannah M Waltermire"},
{"StudentId":"7737","Lattitude":"39.78265","Longittude":"-86.28256","StudentName":"Javier Callado"},
{"StudentId":"10880","Lattitude":"39.75673935","Longittude":"-86.25106334","StudentName":"Xavier Cross Villegas"},
{"StudentId":"16111","Lattitude":"39.73917","Longittude":"-86.323","StudentName":"McDaniel Fontus"},
{"StudentId":"3438","Lattitude":"39.74986988","Longittude":"-86.24629314","StudentName":"Niles Joseph Smith"},
{"StudentId":"16540","Lattitude":"39.75792567","Longittude":"-86.24241432","StudentName":"Mallory Leeann Arnes"},
{"StudentId":"18184","Lattitude":"39.75497472","Longittude":"-86.27262953","StudentName":"Kaithlyn Dariana Alvarez"},
{"StudentId":"7550","Lattitude":"39.79063","Longittude":"-86.31246","StudentName":"Brandon Lamont Kennedy"},
{"StudentId":"10526","Lattitude":"39.77656","Longittude":"-86.28995","StudentName":"Christian Ange Tiehi"},
{"StudentId":"7663","Lattitude":"39.75325","Longittude":"-86.27339","StudentName":"Yasuri Alessandra de Leon Lope"},
{"StudentId":"11441","Lattitude":"39.74780578","Longittude":"-86.2558865","StudentName":"Faith Ann Nicole Larussa"},
{"StudentId":"19095","Lattitude":"39.74961962","Longittude":"-86.27474375","StudentName":"Danni Jay Conn"},
{"StudentId":"17167","Lattitude":"39.76974","Longittude":"-86.26803","StudentName":"A'mir Trevon Tate"},
{"StudentId":"17773","Lattitude":"39.7725","Longittude":"-86.29983","StudentName":"Bisola Olagunju"},
{"StudentId":"13850","Lattitude":"39.76824","Longittude":"-86.27182","StudentName":"Michael Giovanni Amaya-Caldero"},
{"StudentId":"6891","Lattitude":"39.77293","Longittude":"-86.25873","StudentName":"Iris Michelle Ceballos Nunez"},
{"StudentId":"5770","Lattitude":"39.74564365","Longittude":"-86.25233363","StudentName":"Maryjane Ana Garcia"},
{"StudentId":"6293","Lattitude":"39.82171","Longittude":"-86.29011","StudentName":"Kamiyah Lakave Venerable"},
{"StudentId":"18503","Lattitude":"39.75444","Longittude":"-86.26654","StudentName":"Emery Elias Fuller"},
{"StudentId":"7578","Lattitude":"39.74516","Longittude":"-86.24998","StudentName":"Caden Daniel Goode"},
{"StudentId":"18357","Lattitude":"39.75789","Longittude":"-86.28821","StudentName":"Adebayo Daniel Boluwati Adetol"},
{"StudentId":"14728","Lattitude":"39.75794625","Longittude":"-86.27899323","StudentName":"Oladipo Emmanuel Oladugbagbe"},
{"StudentId":"11221","Lattitude":"39.80963","Longittude":"-86.29196","StudentName":"Inoussa Hamet Tidjani"},
{"StudentId":"11749","Lattitude":"39.7523226","Longittude":"-86.23410938","StudentName":"Jocelyn Guerrero Terrazas"},
{"StudentId":"14159","Lattitude":"39.72621002","Longittude":"-86.23139099","StudentName":"Heavenly Neveah Hawk"},
{"StudentId":"11314","Lattitude":"39.79124","Longittude":"-86.27721","StudentName":"Kevin Jose Aguilar"},
{"StudentId":"17044","Lattitude":"39.78477","Longittude":"-86.25854","StudentName":"Chinaza Fortune Okoye"},
{"StudentId":"3772","Lattitude":"39.7379","Longittude":"-86.24311","StudentName":"Adriana Faith Bond"},
{"StudentId":"4386","Lattitude":"39.73942","Longittude":"-86.32209","StudentName":"Nesean Mekhi McClinton"},
{"StudentId":"3792","Lattitude":"39.81886","Longittude":"-86.28665","StudentName":"Carlos Eduardo Carrera Molina"},
{"StudentId":"13373","Lattitude":"39.76602","Longittude":"-86.32058","StudentName":"Maddilyn Dowler"},
{"StudentId":"12615","Lattitude":"39.72800488","Longittude":"-86.2296101","StudentName":"Darian J Smith"},
{"StudentId":"10065","Lattitude":"39.77333","Longittude":"-86.28056","StudentName":"Hailey Ann Johnson"},
{"StudentId":"4519","Lattitude":"39.77088","Longittude":"-86.25676","StudentName":"Madalyn Osorio-Solorzano"},
{"StudentId":"13234","Lattitude":"39.77252","Longittude":"-86.23306","StudentName":"Sadie Mae Haddix"},
{"StudentId":"4749","Lattitude":"39.76671","Longittude":"-86.27023","StudentName":"Belsy Joanna Estrada"},
{"StudentId":"10319","Lattitude":"39.78209","Longittude":"-86.31685","StudentName":"Lucia Escobar-Hernandez"},
{"StudentId":"7581","Lattitude":"39.72768277","Longittude":"-86.21304911","StudentName":"Jacob Thomas Shrum"},
{"StudentId":"18028","Lattitude":"39.80927","Longittude":"-86.22852","StudentName":"Kylie Michelle Warren"},
{"StudentId":"18935","Lattitude":"39.77117","Longittude":"-86.23756","StudentName":"Aiden Melvin Ler Bales"},
{"StudentId":"5485","Lattitude":"39.7427","Longittude":"-86.32454","StudentName":"Annabelle Blinn"},
{"StudentId":"5155","Lattitude":"39.87768","Longittude":"-86.24135","StudentName":"Iris B Rivera"},
{"StudentId":"16767","Lattitude":"39.72103298","Longittude":"-86.23424989","StudentName":"Jullian Antonio Morrow"},
{"StudentId":"11356","Lattitude":"39.7714","Longittude":"-86.20515","StudentName":"Za'Mari Kocina Mason"},
{"StudentId":"7885","Lattitude":"39.76091748","Longittude":"-86.21936497","StudentName":"Xzavier Jaimz Elliott"},
{"StudentId":"5503","Lattitude":"39.79047","Longittude":"-86.28964","StudentName":"Jockzan Ezequiel Llamas"},
{"StudentId":"14860","Lattitude":"39.68075","Longittude":"-86.27979","StudentName":"Michelle Ernestine Hill"},
{"StudentId":"4766","Lattitude":"39.75979721","Longittude":"-86.27959982","StudentName":"Isabella Sophia Mondragon"},
{"StudentId":"15848","Lattitude":"39.77968","Longittude":"-86.29817","StudentName":"Nariah Kristale' Vaden"},
{"StudentId":"5814","Lattitude":"39.77799","Longittude":"-86.29452","StudentName":"Miracle Elise Harris"},
{"StudentId":"3112","Lattitude":"39.76706","Longittude":"-86.31814","StudentName":"Alexander Michael Huerta"},
{"StudentId":"13166","Lattitude":"39.81682","Longittude":"-86.27756","StudentName":"Robert James Conners"},
{"StudentId":"7104","Lattitude":"39.76025697","Longittude":"-86.25750195","StudentName":"Madelin A Guzman-Maya"},
{"StudentId":"14105","Lattitude":"39.77205","Longittude":"-86.36908","StudentName":"Nazela Johnson"},
{"StudentId":"19144","Lattitude":"39.76014659","Longittude":"-86.24185479","StudentName":"William Hughes"},
{"StudentId":"10874","Lattitude":"39.80346","Longittude":"-86.26067","StudentName":"Corey Christophe Froelich"},
{"StudentId":"6247","Lattitude":"39.75281","Longittude":"-86.27339","StudentName":"Daniel Lopez-Espinoza"},
{"StudentId":"10105","Lattitude":"39.79461","Longittude":"-86.20937","StudentName":"Yasmin Arely Cuellar"},
{"StudentId":"14947","Lattitude":"39.75900958","Longittude":"-86.25722592","StudentName":"Ariana Joi Patrick"},
{"StudentId":"10523","Lattitude":"39.76043","Longittude":"-86.23468","StudentName":"Eryx Braedon Coulon"},
{"StudentId":"4866","Lattitude":"39.78631","Longittude":"-86.27904","StudentName":"Yannin Torres"},
{"StudentId":"13097","Lattitude":"39.76045","Longittude":"-86.28079","StudentName":"Jiya Thakar"},
{"StudentId":"11772","Lattitude":"39.81449","Longittude":"-86.28594","StudentName":"Levi Sharone Hines"},
{"StudentId":"18207","Lattitude":"39.73013573","Longittude":"-86.22667717","StudentName":"Brayden Michael Lyke Matthews"},
{"StudentId":"3979","Lattitude":"39.75399","Longittude":"-86.26719","StudentName":"Anastacio Domingo-Alanis"},
{"StudentId":"13341","Lattitude":"39.7565808","Longittude":"-86.22019105","StudentName":"Sheridan Elizabeth Berry"},
{"StudentId":"8237","Lattitude":"39.7230748","Longittude":"-86.24145513","StudentName":"Gavin Joshua-David Price"},
{"StudentId":"11563","Lattitude":"39.78536","Longittude":"-86.30991","StudentName":"Ty'Rae Rivers Perkins"},
{"StudentId":"3845","Lattitude":"39.76757","Longittude":"-86.26559","StudentName":"Oluwaseun Michelle Odedina"},
{"StudentId":"11542","Lattitude":"39.79513","Longittude":"-86.27104","StudentName":"Semilore Michael Sunday"},
{"StudentId":"4285","Lattitude":"39.792","Longittude":"-86.28235","StudentName":"Aaraiah Charae Seawood"},
{"StudentId":"5853","Lattitude":"39.77351","Longittude":"-86.29984","StudentName":"Josh Joseph"},
{"StudentId":"12921","Lattitude":"39.83687","Longittude":"-86.2652","StudentName":"Jayvon Omar Bethea"},
{"StudentId":"14545","Lattitude":"39.77114","Longittude":"-86.26603","StudentName":"Jarry Daniel Ramos Lopez"},
{"StudentId":"7094","Lattitude":"39.76464","Longittude":"-86.29329","StudentName":"Aaron Desean Wooden"},
{"StudentId":"3763","Lattitude":"39.76214","Longittude":"-86.26776","StudentName":"Hezeki Joel Lewis"},
{"StudentId":"16491","Lattitude":"39.78679","Longittude":"-86.28041","StudentName":"Marison Johanny Benitez Vidal"},
{"StudentId":"12459","Lattitude":"39.60026","Longittude":"-86.34935","StudentName":"Alexis Marie Hildebrand"},
{"StudentId":"17305","Lattitude":"39.74650764","Longittude":"-86.28016348","StudentName":"Hani Ahmed"},
{"StudentId":"4329","Lattitude":"39.79039","Longittude":"-86.2754","StudentName":"Dwan Jerome Maxwell"},
{"StudentId":"3295","Lattitude":"39.76672","Longittude":"-86.3222","StudentName":"Beau Young"},
{"StudentId":"5448","Lattitude":"39.75593","Longittude":"-86.25977","StudentName":"Maritza Rivera Sanchez"},
{"StudentId":"14290","Lattitude":"39.77491","Longittude":"-86.25634","StudentName":"Jonielys Marie Rivera Castro"},
{"StudentId":"4971","Lattitude":"39.78049","Longittude":"-86.31959","StudentName":"Natilee Michelle Hash"},
{"StudentId":"7364","Lattitude":"39.76783","Longittude":"-86.32052","StudentName":"Stephanie McQueary"},
{"StudentId":"7865","Lattitude":"39.76273357","Longittude":"-86.23756071","StudentName":"Logan Avery Faulkner"},
{"StudentId":"3431","Lattitude":"39.77702","Longittude":"-86.2953","StudentName":"Erianna D Turner"},
{"StudentId":"9016","Lattitude":"39.89048","Longittude":"-86.12778","StudentName":"Nathan James Day"},
{"StudentId":"9120","Lattitude":"39.82229","Longittude":"-86.28834","StudentName":"Casey Brandon Butler"},
{"StudentId":"15080","Lattitude":"39.76446","Longittude":"-86.24435","StudentName":"Tieariana Jessica Onate"},
{"StudentId":"6981","Lattitude":"39.73238787","Longittude":"-86.22863153","StudentName":"Jayden Allen Dent"},
{"StudentId":"12650","Lattitude":"39.74041","Longittude":"-86.32058","StudentName":"Devin Green"},
{"StudentId":"17257","Lattitude":"39.77194","Longittude":"-86.26123","StudentName":"Isli E Trejo"},
{"StudentId":"12536","Lattitude":"39.77835","Longittude":"-86.29524","StudentName":"Ahna Dumes"},
{"StudentId":"14699","Lattitude":"39.76206","Longittude":"-86.26741","StudentName":"Antonio Lavel Fifer"},
{"StudentId":"4188","Lattitude":"39.76253759","Longittude":"-86.26716974","StudentName":"Yulian Rocelia De Paz Velasque"},
{"StudentId":"5431","Lattitude":"39.73595","Longittude":"-86.32338","StudentName":"Jace Edwin Miller"},
{"StudentId":"14031","Lattitude":"39.75921","Longittude":"-86.28704","StudentName":"Virgil Terrell Douglas"},
{"StudentId":"8315","Lattitude":"39.745","Longittude":"-86.25362","StudentName":"Armando Galvan"},
{"StudentId":"17746","Lattitude":"39.76256","Longittude":"-86.22848","StudentName":"Calvin Lee Stone"},
{"StudentId":"18250","Lattitude":"39.77213","Longittude":"-86.32066","StudentName":"Christopher Michael Hutto"},
{"StudentId":"11657","Lattitude":"39.79667","Longittude":"-86.27249","StudentName":"Oluwafikunayomi Daniel Agbolad"},
{"StudentId":"14120","Lattitude":"39.77508","Longittude":"-86.31963","StudentName":"Malorie Ellen Voris"},
{"StudentId":"8324","Lattitude":"39.75901731","Longittude":"-86.2406838","StudentName":"Robert Allen Sterrett"},
{"StudentId":"16813","Lattitude":"39.76842","Longittude":"-86.31982","StudentName":"Andie Lyn Holladay"},
{"StudentId":"8904","Lattitude":"39.81935","Longittude":"-86.28716","StudentName":"Jair Perez"},
{"StudentId":"6581","Lattitude":"39.75138823","Longittude":"-86.25052348","StudentName":"Dylan Taylor Crow"},
{"StudentId":"12007","Lattitude":"39.78408","Longittude":"-86.28404","StudentName":"Riley James Winningham"},
{"StudentId":"6868","Lattitude":"39.75967939","Longittude":"-86.28537625","StudentName":"Karter Demone Russo"},
{"StudentId":"15284","Lattitude":"39.75910211","Longittude":"-86.28767546","StudentName":"Serigne Gregory"},
{"StudentId":"18866","Lattitude":"39.74271","Longittude":"-86.32495","StudentName":"Taytem Mikel Hyche"},
{"StudentId":"18689","Lattitude":"39.75598288","Longittude":"-86.27610795","StudentName":"Tristan Dean Riedy"},
{"StudentId":"9910","Lattitude":"39.81451","Longittude":"-86.28491","StudentName":"Jazmin Diego"},
{"StudentId":"16234","Lattitude":"39.79549","Longittude":"-86.32095","StudentName":"Jacobi Daniel Shannon"},
{"StudentId":"13058","Lattitude":"39.80853","Longittude":"-86.28497","StudentName":"Lauren Alysa Lopez Rodriguez"},
{"StudentId":"5713","Lattitude":"39.79449","Longittude":"-86.21422","StudentName":"BreAsia Alyece Gamble"},
{"StudentId":"12259","Lattitude":"39.81042","Longittude":"-86.28103","StudentName":"Camila Belen Martinez-Ardon"},
{"StudentId":"5966","Lattitude":"39.77836","Longittude":"-86.29504","StudentName":"Landon Da'juan Canady"},
{"StudentId":"18891","Lattitude":"39.78939","Longittude":"-86.22258","StudentName":"Scottlynn L Johnson"},
{"StudentId":"13111","Lattitude":"39.76614","Longittude":"-86.21864","StudentName":"Avery Nevaeh De Los Santos"},
{"StudentId":"10335","Lattitude":"39.73691","Longittude":"-86.24099","StudentName":"Yuliana Renee Romo"},
{"StudentId":"5051","Lattitude":"39.75564","Longittude":"-86.31337","StudentName":"Riley James Anderson"},
{"StudentId":"10608","Lattitude":"39.75677","Longittude":"-86.32352","StudentName":"Kaison Giovanni Pervine"},
{"StudentId":"2911","Lattitude":"39.75921","Longittude":"-86.23465","StudentName":"Jerricka Wynter Simmons"},
{"StudentId":"4394","Lattitude":"39.77637","Longittude":"-86.29793","StudentName":"Famous Anuoluwaposimi Dopemu"},
{"StudentId":"8060","Lattitude":"39.75686","Longittude":"-86.22855","StudentName":"Lonnie Jackson Jones"},
{"StudentId":"16270","Lattitude":"39.79635","Longittude":"-86.31533","StudentName":"Evelynn Rose Hornocker"},
{"StudentId":"4610","Lattitude":"39.79561","Longittude":"-86.27035","StudentName":"Christwealth Obaloluwa Akinlot"},
{"StudentId":"18427","Lattitude":"39.76247","Longittude":"-86.22824","StudentName":"Mariah Candice Asbury"},
{"StudentId":"8285","Lattitude":"39.76004225","Longittude":"-86.22787922","StudentName":"Jennifer Marisol Francisco"},
{"StudentId":"2919","Lattitude":"39.56198","Longittude":"-86.33895","StudentName":"Zayde Vincent Stewart"},
{"StudentId":"18894","Lattitude":"39.74757168","Longittude":"-86.27838889","StudentName":"Micah Alexander Brown"},
{"StudentId":"17063","Lattitude":"39.75760398","Longittude":"-86.28819648","StudentName":"Damerreyon Keyonta Ramos"},
{"StudentId":"11050","Lattitude":"39.78251","Longittude":"-86.31832","StudentName":"Tamyra Jean Parker"},
{"StudentId":"19091","Lattitude":"39.79656","Longittude":"-86.27165","StudentName":"Adedoyinsola Adedeji Oyewole"},
{"StudentId":"11635","Lattitude":"39.75474","Longittude":"-86.22701","StudentName":"Neyda Ibanez-Garcia"},
{"StudentId":"11982","Lattitude":"39.75467596","Longittude":"-86.23724548","StudentName":"Lucas Edward Manning"},
{"StudentId":"17692","Lattitude":"39.75125","Longittude":"-86.25843","StudentName":"Tyce Dion Devoe Reese"},
{"StudentId":"15906","Lattitude":"39.75553","Longittude":"-86.54922","StudentName":"Gabriel Ivar Rorie"},
{"StudentId":"9559","Lattitude":"39.74397958","Longittude":"-86.24588574","StudentName":"Zanebryan Caillou K D Culberts"},
{"StudentId":"15368","Lattitude":"39.725953","Longittude":"-86.25473","StudentName":"Dylan Janssen"},
{"StudentId":"8901","Lattitude":"39.72049493","Longittude":"-86.23069362","StudentName":"Hailey E Pierce"},
{"StudentId":"9319","Lattitude":"39.76628","Longittude":"-86.27184","StudentName":"Britney Ronquillo"},
{"StudentId":"11150","Lattitude":"39.7659","Longittude":"-86.31539","StudentName":"Octavia Ke-Yasmin Comer"},
{"StudentId":"10056","Lattitude":"39.77085","Longittude":"-86.32161","StudentName":"Carlos Bouchett's Valliant"},
{"StudentId":"7239","Lattitude":"39.7757975","Longittude":"-86.2969055","StudentName":"Isemarlie Rouzard"},
{"StudentId":"10292","Lattitude":"39.78805","Longittude":"-86.31052","StudentName":"Ashton Allen Durgin"},
{"StudentId":"3016","Lattitude":"39.78852","Longittude":"-86.29183","StudentName":"Teagan Lee Southern"},
{"StudentId":"14679","Lattitude":"39.7971","Longittude":"-86.18537","StudentName":"Jeffery Hill"},
{"StudentId":"15647","Lattitude":"39.75590343","Longittude":"-86.27330104","StudentName":"Angel Nicole Brown"},
{"StudentId":"7484","Lattitude":"39.74711998","Longittude":"-86.24436331","StudentName":"Austin Dean Whitley"},
{"StudentId":"14552","Lattitude":"39.7851","Longittude":"-86.32376","StudentName":"Michael Levi Lawson"},
{"StudentId":"8504","Lattitude":"39.75141487","Longittude":"-86.28158314","StudentName":"Vanessa Renee Carmona"},
{"StudentId":"15492","Lattitude":"39.78534","Longittude":"-86.32378","StudentName":"Leelan J Bolin"},
{"StudentId":"10823","Lattitude":"39.77293","Longittude":"-86.2983","StudentName":"Sosuna Ainialem"},
{"StudentId":"10715","Lattitude":"39.77546","Longittude":"-86.26648","StudentName":"Emanuel Isai Fernandez-Duglas"},
{"StudentId":"15300","Lattitude":"39.75771922","Longittude":"-86.21691836","StudentName":"Dajuan Lamont Miller"},
{"StudentId":"8145","Lattitude":"39.85044","Longittude":"-86.03393","StudentName":"Devonta Lumar Coleman"},
{"StudentId":"16118","Lattitude":"39.76107292","Longittude":"-86.23588108","StudentName":"Jordan A Contreras"},
{"StudentId":"14994","Lattitude":"39.78125","Longittude":"-86.2561","StudentName":"Jazilyn Belle Wetzel"},
{"StudentId":"18440","Lattitude":"39.79908","Longittude":"-86.31463","StudentName":"Letha Estell Arnold"},
{"StudentId":"10627","Lattitude":"39.77547","Longittude":"-86.29679","StudentName":"Santiago Arboleda"},
{"StudentId":"17904","Lattitude":"39.7884","Longittude":"-86.29567","StudentName":"Brandon Villanueva"},
{"StudentId":"6151","Lattitude":"39.75879","Longittude":"-86.24673","StudentName":"Elias Pizarro Rascon"},
{"StudentId":"6241","Lattitude":"39.77913","Longittude":"-86.31917","StudentName":"Anthony Lee Savoy"},
{"StudentId":"3300","Lattitude":"39.75382965","Longittude":"-86.23958129","StudentName":"Timothy Marcus Davis"},
{"StudentId":"12534","Lattitude":"39.94823","Longittude":"-86.13015","StudentName":"Kobie Jarin Lewis"},
{"StudentId":"14444","Lattitude":"39.75695","Longittude":"-86.32575","StudentName":"Elliott Darnell Mims"},
{"StudentId":"4094","Lattitude":"39.75872789","Longittude":"-86.25544949","StudentName":"Jordan Michael Duckett"},
{"StudentId":"4252","Lattitude":"39.77216","Longittude":"-86.27619","StudentName":"Robert James Trotter"},
{"StudentId":"18052","Lattitude":"39.73939","Longittude":"-86.31884","StudentName":"Catherine Marie Bell"},
{"StudentId":"4079","Lattitude":"39.7992","Longittude":"-86.29933","StudentName":"Devora Negga Yosief"},
{"StudentId":"4487","Lattitude":"39.78204","Longittude":"-86.29913","StudentName":"Shaunae Elyssa Wilson"},
{"StudentId":"7535","Lattitude":"39.75390081","Longittude":"-86.25607253","StudentName":"Emma Lynn McClain"},
{"StudentId":"5787","Lattitude":"39.8144","Longittude":"-86.2781","StudentName":"Chanel Phillips"},
{"StudentId":"11009","Lattitude":"39.78077","Longittude":"-86.2574","StudentName":"Bri'Kayla Kalise Faulkner"},
{"StudentId":"9603","Lattitude":"39.7757975","Longittude":"-86.2969055","StudentName":"Avery Sean Johnson"},
{"StudentId":"3897","Lattitude":"39.72578767","Longittude":"-86.23554108","StudentName":"Destiny Moorman"},
{"StudentId":"12593","Lattitude":"39.72898632","Longittude":"-86.23076571","StudentName":"Aliegha Reign Scott"},
{"StudentId":"16870","Lattitude":"39.75412702","Longittude":"-86.22777472","StudentName":"Miguel Angel Garcia"},
{"StudentId":"17900","Lattitude":"39.75258101","Longittude":"-86.24185337","StudentName":"Alexus Shavonne Scott"},
{"StudentId":"6356","Lattitude":"39.7475","Longittude":"-86.31975","StudentName":"Essay Biniam"},
{"StudentId":"12565","Lattitude":"39.72309809","Longittude":"-86.2447602","StudentName":"Kylena Ann Esparra"},
{"StudentId":"13119","Lattitude":"39.7702","Longittude":"-86.26307","StudentName":"Yazmin Morales Florencio"},
{"StudentId":"17045","Lattitude":"39.74014","Longittude":"-86.24489","StudentName":"Braelyn Rose Lillard"},
{"StudentId":"4383","Lattitude":"39.8208","Longittude":"-86.32408","StudentName":"Autumn Alexa Foltz"},
{"StudentId":"8459","Lattitude":"39.81457","Longittude":"-86.32284","StudentName":"Hunter Caffey"},
{"StudentId":"12898","Lattitude":"39.77548","Longittude":"-86.26547","StudentName":"Mofeoluwa Adeniran"},
{"StudentId":"8059","Lattitude":"39.77657","Longittude":"-86.3145","StudentName":"Haven G Papineau"},
{"StudentId":"10402","Lattitude":"39.76042","Longittude":"-86.28446","StudentName":"Amora Michelle Reed"},
{"StudentId":"3948","Lattitude":"39.77652","Longittude":"-86.26475","StudentName":"Cimya Nevaeh McCoy"},
{"StudentId":"3343","Lattitude":"39.75384884","Longittude":"-86.23796641","StudentName":"Carmen Elizabeth Lopez"},
{"StudentId":"18575","Lattitude":"39.7167939","Longittude":"-86.2476744","StudentName":"Nalani Williams"},
{"StudentId":"4245","Lattitude":"39.77582","Longittude":"-86.23339","StudentName":"Nathan Jay Alexander"},
{"StudentId":"8930","Lattitude":"39.81505","Longittude":"-86.28596","StudentName":"Jared Anastacio-Lopez"},
{"StudentId":"12278","Lattitude":"39.81993","Longittude":"-86.28482","StudentName":"Ti'Mhuad Anthony Hill"},
{"StudentId":"9822","Lattitude":"39.75597","Longittude":"-86.25233","StudentName":"Jacob Bradford Patchon"},
{"StudentId":"17103","Lattitude":"39.73803","Longittude":"-86.24564","StudentName":"Maycee J Smith"},
{"StudentId":"12319","Lattitude":"39.80959","Longittude":"-86.2846","StudentName":"Alexander Ramirez"},
{"StudentId":"17390","Lattitude":"39.72373939","Longittude":"-86.22663575","StudentName":"Shane McKinley Vibbert"},
{"StudentId":"4327","Lattitude":"39.77739","Longittude":"-86.25349","StudentName":"James William Scott"},
{"StudentId":"13677","Lattitude":"39.73925","Longittude":"-86.24752","StudentName":"David Venegas"},
{"StudentId":"18167","Lattitude":"39.72275643","Longittude":"-86.24384444","StudentName":"Donivan Allan Wade"},
{"StudentId":"3215","Lattitude":"39.81817","Longittude":"-86.28896","StudentName":"Ta'Nya Gabrielle Williams"},
{"StudentId":"11880","Lattitude":"39.82008","Longittude":"-86.26692","StudentName":"Tamari A Blair"},
{"StudentId":"8238","Lattitude":"39.72674366","Longittude":"-86.21394529","StudentName":"Lloyd CA Liscomb"},
{"StudentId":"4155","Lattitude":"39.79119","Longittude":"-86.29585","StudentName":"Jakeem S Carrodine"},
{"StudentId":"13712","Lattitude":"39.79062","Longittude":"-86.29223","StudentName":"Diego Leonel Chacon"},
{"StudentId":"3614","Lattitude":"39.80858","Longittude":"-86.29672","StudentName":"Xaiver Johnson"},
{"StudentId":"12750","Lattitude":"39.78983","Longittude":"-86.32621","StudentName":"Elijah Stone Hopson"},
{"StudentId":"15357","Lattitude":"39.77815","Longittude":"-86.29671","StudentName":"Ja'Nelle Elaine Brown"},
{"StudentId":"12973","Lattitude":"39.7717","Longittude":"-86.31657","StudentName":"Kirk Thomas Barrick"},
{"StudentId":"12129","Lattitude":"39.77538","Longittude":"-86.34941","StudentName":"Avery Agnes Blamo"},
{"StudentId":"16546","Lattitude":"39.72450087","Longittude":"-86.23865033","StudentName":"Madison Nichole Hunter"},
{"StudentId":"13799","Lattitude":"39.80551","Longittude":"-86.21362","StudentName":"Kamonyae Renee Lane"},
{"StudentId":"3590","Lattitude":"39.8145","Longittude":"-86.28522","StudentName":"The'Aven Nuckols"},
{"StudentId":"19103","Lattitude":"39.77344","Longittude":"-86.25445","StudentName":"Liliana Salinas-Sanchez"},
{"StudentId":"11207","Lattitude":"39.80799","Longittude":"-86.31171","StudentName":"Demetrious Devontae Walker"},
{"StudentId":"16478","Lattitude":"39.7784","Longittude":"-86.28637","StudentName":"Roselyn Torales"},
{"StudentId":"5110","Lattitude":"39.76734","Longittude":"-86.26597","StudentName":"Elebatael Tesfaye"},
{"StudentId":"5199","Lattitude":"39.73763","Longittude":"-86.32299","StudentName":"Segla Dorsene Elimon"},
{"StudentId":"16924","Lattitude":"39.8065","Longittude":"-86.2913","StudentName":"Aniya Janae Payne"},
{"StudentId":"16481","Lattitude":"39.74880179","Longittude":"-86.27602595","StudentName":"Jaydy Michelle Moreno"},
{"StudentId":"7114","Lattitude":"39.78638","Longittude":"-86.31688","StudentName":"Jasmine Ranae Schmidt"},
{"StudentId":"18386","Lattitude":"39.72456293","Longittude":"-86.22664462","StudentName":"Madison Michelle Sterrett"},
{"StudentId":"8222","Lattitude":"39.78634","Longittude":"-86.27763","StudentName":"Trevon Wayne Scott Selke"},
{"StudentId":"15502","Lattitude":"39.78164","Longittude":"-86.25796","StudentName":"Oluwatofunmi Michelle Bankole"},
{"StudentId":"13632","Lattitude":"39.75854","Longittude":"-86.27612","StudentName":"Jacob Matthew Allen"},
{"StudentId":"4495","Lattitude":"39.78585","Longittude":"-86.32406","StudentName":"Bryan Carrera-Nieto"},
{"StudentId":"11470","Lattitude":"39.80962","Longittude":"-86.28626","StudentName":"Keyaira Young"},
{"StudentId":"14862","Lattitude":"39.76273357","Longittude":"-86.23756071","StudentName":"Caleb James Faulkner"},
{"StudentId":"11718","Lattitude":"39.74840636","Longittude":"-86.28035897","StudentName":"Sakira Amadou"},
{"StudentId":"17052","Lattitude":"39.77342","Longittude":"-86.25729","StudentName":"Edwin Pedro Navarrete"},
{"StudentId":"3071","Lattitude":"39.72399515","Longittude":"-86.23825816","StudentName":"Kassandra Luv Stafford"},
{"StudentId":"16441","Lattitude":"39.7463","Longittude":"-86.30811","StudentName":"Carlos Angel Duran-Garcia"},
{"StudentId":"17724","Lattitude":"39.75894","Longittude":"-86.32182","StudentName":"Jahmir Haason Ladd"},
{"StudentId":"19365","Lattitude":"39.8206","Longittude":"-86.28865","StudentName":"Marcus Dewayne Britt"},
{"StudentId":"16640","Lattitude":"39.76345","Longittude":"-86.23454","StudentName":"Essenc' Lalah Iman Morris"},
{"StudentId":"9285","Lattitude":"39.72371556","Longittude":"-86.23072396","StudentName":"Shaylyne Devine DeBose"},
{"StudentId":"9613","Lattitude":"39.78971","Longittude":"-86.29012","StudentName":"Armelius Jajuan Roberson"},
{"StudentId":"11039","Lattitude":"39.72816249","Longittude":"-86.24329798","StudentName":"Kaden E Wesley"},
{"StudentId":"6707","Lattitude":"39.72477478","Longittude":"-86.23751565","StudentName":"Jorge Edmundo Peraza"},
{"StudentId":"19204","Lattitude":"39.7742","Longittude":"-86.25731","StudentName":"Eilin Dareiny Roblero Gonzalez"},
{"StudentId":"7687","Lattitude":"39.81212","Longittude":"-86.29008","StudentName":"Ty Khan Reinier"},
{"StudentId":"17679","Lattitude":"39.74347","Longittude":"-86.3261","StudentName":"Ao'Lazara Diamonique-Shi' Hill"},
{"StudentId":"4270","Lattitude":"39.76634","Longittude":"-86.25559","StudentName":"Genesis Grande"},
{"StudentId":"9870","Lattitude":"39.82202","Longittude":"-86.29015","StudentName":"Mohamed Kaba"},
{"StudentId":"13769","Lattitude":"39.76974","Longittude":"-86.2668","StudentName":"Luis Santiago Godoy"},
{"StudentId":"6567","Lattitude":"39.81558","Longittude":"-86.32564","StudentName":"Maximo Scott Friedman"},
{"StudentId":"15201","Lattitude":"39.7481","Longittude":"-86.31765","StudentName":"Elaina Poole"},
{"StudentId":"17851","Lattitude":"39.78529","Longittude":"-86.31964","StudentName":"D'Anna Michelle Sparks"},
{"StudentId":"10361","Lattitude":"39.74856018","Longittude":"-86.28011917","StudentName":"Malakiah AjAi Hughley"},
{"StudentId":"18835","Lattitude":"39.81795","Longittude":"-86.2966","StudentName":"Brandon Lee Evans"},
{"StudentId":"5952","Lattitude":"39.78522","Longittude":"-86.32377","StudentName":"Jasmine Mik'kaleah Williams"},
{"StudentId":"17401","Lattitude":"39.81869","Longittude":"-86.28904","StudentName":"Che'lora Felix"},
{"StudentId":"12442","Lattitude":"39.76059","Longittude":"-86.25877","StudentName":"Edric Bobby Stillabower"},
{"StudentId":"14338","Lattitude":"39.76032","Longittude":"-86.25368","StudentName":"Devin Malik Gordy"},
{"StudentId":"8972","Lattitude":"39.79079","Longittude":"-86.29577","StudentName":"Kennedy Alexis Haynes"},
{"StudentId":"3155","Lattitude":"39.75816723","Longittude":"-86.28104156","StudentName":"Jason Roberto Gonzalez"},
{"StudentId":"7562","Lattitude":"39.75696","Longittude":"-86.25461","StudentName":"Keily Abigail Orellana Tejad"},
{"StudentId":"10101","Lattitude":"39.73917","Longittude":"-86.3221","StudentName":"Tyree M Turner"},
{"StudentId":"12912","Lattitude":"39.71662665","Longittude":"-86.24778201","StudentName":"Aniya M Marfia"},
{"StudentId":"18921","Lattitude":"39.78815","Longittude":"-86.28235","StudentName":"Brayden James Williamson"},
{"StudentId":"9594","Lattitude":"39.77057","Longittude":"-86.24651","StudentName":"Eric Davis Bouier"},
{"StudentId":"13289","Lattitude":"39.77101","Longittude":"-86.25213","StudentName":"Destini Regina Jackson"},
{"StudentId":"3173","Lattitude":"39.8112","Longittude":"-86.29368","StudentName":"Ja'Niyah Yvonne Harris"},
{"StudentId":"4779","Lattitude":"39.7268146","Longittude":"-86.24615056","StudentName":"Landon M Noel"},
{"StudentId":"8798","Lattitude":"39.74333","Longittude":"-86.32008","StudentName":"Angel Daniel Lozano-Irias"},
{"StudentId":"6307","Lattitude":"39.82229","Longittude":"-86.28834","StudentName":"Clay Brian Butler"},
{"StudentId":"10381","Lattitude":"39.77836","Longittude":"-86.29915","StudentName":"Michael Abisha Von Henderson"},
{"StudentId":"11328","Lattitude":"39.77043","Longittude":"-86.26039","StudentName":"Lisette Zarate"},
{"StudentId":"4497","Lattitude":"39.78909","Longittude":"-86.27956","StudentName":"Kaelan Newlin"},
{"StudentId":"9766","Lattitude":"39.77714","Longittude":"-86.29053","StudentName":"Omaurion Yavin Smith"},
{"StudentId":"8346","Lattitude":"39.77477","Longittude":"-86.30028","StudentName":"Aniya Marie Rochelle Brown"},
{"StudentId":"7401","Lattitude":"39.77819","Longittude":"-86.2575","StudentName":"Samuel Patrick Murphy"},
{"StudentId":"13505","Lattitude":"39.78036","Longittude":"-86.32164","StudentName":"Nikki Marie Graves"},
{"StudentId":"7146","Lattitude":"39.77521","Longittude":"-86.29337","StudentName":"Abigail Ariana Abrego"},
{"StudentId":"11831","Lattitude":"39.81804","Longittude":"-86.31793","StudentName":"Haylee Anne Rogers"},
{"StudentId":"17699","Lattitude":"39.7818","Longittude":"-86.25652","StudentName":"Samuel Omodusonu"},
{"StudentId":"8394","Lattitude":"39.76056696","Longittude":"-86.25824551","StudentName":"Henry Thomas Turner"},
{"StudentId":"17515","Lattitude":"39.79495","Longittude":"-86.27645","StudentName":"Laiel Autumn Hicks"},
{"StudentId":"8367","Lattitude":"39.75478099","Longittude":"-86.22602385","StudentName":"Zander Nikolas Ploughe"},
{"StudentId":"16764","Lattitude":"39.76113988","Longittude":"-86.25403965","StudentName":"T'Asia Stewart"},
{"StudentId":"5286","Lattitude":"39.75297821","Longittude":"-86.2414339","StudentName":"Jarethzi kaina Jose-Leiva"},
{"StudentId":"3412","Lattitude":"39.77837","Longittude":"-86.29444","StudentName":"Tinaayah Malone"},
{"StudentId":"16469","Lattitude":"39.90642","Longittude":"-85.91761","StudentName":"stella spector"},
{"StudentId":"17464","Lattitude":"39.81171","Longittude":"-86.28274","StudentName":"Bre'Leah Tyzeonna Quinn"},
{"StudentId":"5496","Lattitude":"39.80582","Longittude":"-86.28996","StudentName":"Jada Kiersten Bonner"},
{"StudentId":"12983","Lattitude":"39.75912","Longittude":"-86.23202","StudentName":"Sergio Zafra-Alegria"},
{"StudentId":"16347","Lattitude":"39.77697","Longittude":"-86.27557","StudentName":"Sebastian Lee Willing"},
{"StudentId":"11476","Lattitude":"39.7743","Longittude":"-86.31336","StudentName":"Elijah Avery Thompson"},
{"StudentId":"4946","Lattitude":"39.79244","Longittude":"-86.20767","StudentName":"Mariah Michelle Alvarez-Montoy"},
{"StudentId":"19420","Lattitude":"39.77848","Longittude":"-86.31233","StudentName":"Joshua Issac Campos"},
{"StudentId":"19031","Lattitude":"39.74749","Longittude":"-86.31947","StudentName":"Caleb Bongnwie Awambeng"},
{"StudentId":"11233","Lattitude":"39.8113","Longittude":"-86.30321","StudentName":"Jeremiah J Bland"},
{"StudentId":"9057","Lattitude":"39.74475285","Longittude":"-86.28193416","StudentName":"Luis Miguel Bautista"},
{"StudentId":"9632","Lattitude":"39.73507","Longittude":"-86.24247","StudentName":"Serenity Violet Austin"},
{"StudentId":"11992","Lattitude":"39.78772","Longittude":"-86.29707","StudentName":"Uriel Paz"},
{"StudentId":"10269","Lattitude":"39.76070123","Longittude":"-86.23074706","StudentName":"Jhoanna Villanueva"},
{"StudentId":"14724","Lattitude":"39.75281","Longittude":"-86.27339","StudentName":"Kevin Martinez Mejia"},
{"StudentId":"7469","Lattitude":"39.73827","Longittude":"-86.32416","StudentName":"Evan Mitchell Smith"},
{"StudentId":"14975","Lattitude":"39.8024","Longittude":"-86.31454","StudentName":"Julius Anthony Dewey"},
{"StudentId":"9719","Lattitude":"39.77447","Longittude":"-86.2693","StudentName":"Joshua Korede Akinrotoye"},
{"StudentId":"9521","Lattitude":"39.77736","Longittude":"-86.20618","StudentName":"Zachariah James Gimlich"},
{"StudentId":"6848","Lattitude":"39.75866","Longittude":"-86.3239","StudentName":"Jordan Cartier Young"},
{"StudentId":"18763","Lattitude":"39.75492897","Longittude":"-86.23341231","StudentName":"Iyari Azeneth Perusquia"},
{"StudentId":"3907","Lattitude":"39.76518","Longittude":"-86.28584","StudentName":"Trenton Ray Hollaway"},
{"StudentId":"3856","Lattitude":"39.78781","Longittude":"-86.29482","StudentName":"J'Cyria Sincere Dillon"},
{"StudentId":"6258","Lattitude":"39.77644","Longittude":"-86.25509","StudentName":"Jean Michael Blade Dupervil"},
{"StudentId":"14903","Lattitude":"39.77504","Longittude":"-86.29477","StudentName":"Mikayla Antiona Hoskins"},
{"StudentId":"15853","Lattitude":"39.74812953","Longittude":"-86.2741835","StudentName":"Joseph Michael Lomeli"},
{"StudentId":"7330","Lattitude":"39.75247161","Longittude":"-86.27490284","StudentName":"Gloria Melissa Moreno-Cordero"},
{"StudentId":"11681","Lattitude":"39.66685","Longittude":"-86.25489","StudentName":"Anna Rebecca Martin"},
{"StudentId":"16293","Lattitude":"39.72211508","Longittude":"-86.24411134","StudentName":"Chase Smith"},
{"StudentId":"13360","Lattitude":"39.75598916","Longittude":"-86.21671612","StudentName":"Titus Terrell McCullough"},
{"StudentId":"9011","Lattitude":"39.74545584","Longittude":"-86.21448346","StudentName":"Yency Nicol Iraheta Ubieta"},
{"StudentId":"19285","Lattitude":"39.75799","Longittude":"-86.22548","StudentName":"Eric Donald Smith"},
{"StudentId":"9235","Lattitude":"39.81566","Longittude":"-86.28057","StudentName":"Lukas Fabian Ferrer Gomez"},
{"StudentId":"4556","Lattitude":"39.76639","Longittude":"-86.21875","StudentName":"Vincent Dale Hebert"},
{"StudentId":"9628","Lattitude":"39.78266","Longittude":"-86.25921","StudentName":"Victor Eniola Akinlemibola"},
{"StudentId":"5424","Lattitude":"39.80694","Longittude":"-86.32317","StudentName":"Tara Christine Hatheway"},
{"StudentId":"12745","Lattitude":"39.75787069","Longittude":"-86.28576654","StudentName":"Lily Ann Bishop"},
{"StudentId":"15198","Lattitude":"39.79548","Longittude":"-86.27025","StudentName":"Amerie Laur Van Jones"},
{"StudentId":"3519","Lattitude":"39.77316","Longittude":"-86.31754","StudentName":"Esau Cortez"},
{"StudentId":"6100","Lattitude":"39.8104","Longittude":"-86.28172","StudentName":"Demarion Deondre Coleman"},
{"StudentId":"8903","Lattitude":"39.73649","Longittude":"-86.24154","StudentName":"Aidan Christopher Ottinger-Rol"},
{"StudentId":"15105","Lattitude":"39.74719354","Longittude":"-86.28395366","StudentName":"Emy Xiomara Rivas Rodriguez"},
{"StudentId":"15676","Lattitude":"39.76797","Longittude":"-86.26238","StudentName":"Emani Latrice Bonner"},
{"StudentId":"13339","Lattitude":"39.81547","Longittude":"-86.28492","StudentName":"George Elijah Tob Martin"},
{"StudentId":"15342","Lattitude":"39.75777","Longittude":"-86.2606","StudentName":"Avalynne Kay-Marie Meeker"},
{"StudentId":"9784","Lattitude":"39.74833","Longittude":"-86.31868","StudentName":"Shiv Vijay Patel"},
{"StudentId":"12161","Lattitude":"39.74435525","Longittude":"-86.28737401","StudentName":"Justice Duane Eaton"},
{"StudentId":"18431","Lattitude":"39.73748","Longittude":"-86.31206","StudentName":"Jimmy Zaragoza-Anguiano"},
{"StudentId":"10934","Lattitude":"39.81854","Longittude":"-86.28905","StudentName":"Olasubomi Elizabeth Olatunji"},
{"StudentId":"14569","Lattitude":"39.75921","Longittude":"-86.23465","StudentName":"Kaydence V Scruggs"},
{"StudentId":"6810","Lattitude":"39.77317","Longittude":"-86.29727","StudentName":"Sean John Williams"},
{"StudentId":"10353","Lattitude":"39.79767","Longittude":"-86.30504","StudentName":"Jo'Vaughn Jamore Martin"},
{"StudentId":"8242","Lattitude":"39.71725","Longittude":"-86.22237","StudentName":"Leslie Urbina"},
{"StudentId":"5213","Lattitude":"39.78073","Longittude":"-86.25734","StudentName":"Selene Villagrana Hernandez"},
{"StudentId":"3326","Lattitude":"39.79064","Longittude":"-86.28082","StudentName":"Aaliyah Nichole Blackshear"},
{"StudentId":"17357","Lattitude":"39.80564","Longittude":"-86.28869","StudentName":"Lovevenske Dorvilus"},
{"StudentId":"19037","Lattitude":"39.78183","Longittude":"-86.27526","StudentName":"Joanna Mariah Rose Morrison"},
{"StudentId":"13645","Lattitude":"39.7622","Longittude":"-86.26742","StudentName":"Derriyha Doris Cooper"},
{"StudentId":"12639","Lattitude":"39.7933","Longittude":"-86.2789","StudentName":"Sarah Elizabeth Ansert"},
{"StudentId":"4467","Lattitude":"39.76996","Longittude":"-86.28831","StudentName":"Serenity Lee Pate"},
{"StudentId":"5015","Lattitude":"39.75150465","Longittude":"-86.2443745","StudentName":"Cristina Marlyn Santiago-Marti"},
{"StudentId":"12622","Lattitude":"39.77321","Longittude":"-86.264","StudentName":"Mateo Martinez-Belloso"},
{"StudentId":"17156","Lattitude":"39.77625","Longittude":"-86.29652","StudentName":"Oluwajomiloju Isaiah Adenuga"},
{"StudentId":"14263","Lattitude":"39.75395","Longittude":"-86.263","StudentName":"Samarya Legesse"},
{"StudentId":"12378","Lattitude":"39.80845","Longittude":"-86.15241","StudentName":"Danicca Aniya Harrell"},
{"StudentId":"9799","Lattitude":"39.78218","Longittude":"-86.32218","StudentName":"Robert Joseph Taylor"},
{"StudentId":"12066","Lattitude":"39.81644","Longittude":"-86.27829","StudentName":"Hermoni Elizabeth Andrew"},
{"StudentId":"17342","Lattitude":"39.75287038","Longittude":"-86.23200274","StudentName":"Emiliano Lucio"},
{"StudentId":"12922","Lattitude":"39.74965","Longittude":"-86.25355","StudentName":"Amador Chimal-Gomez"},
{"StudentId":"12906","Lattitude":"39.63759","Longittude":"-86.32452","StudentName":"Zoey M Barnes"},
{"StudentId":"15703","Lattitude":"39.77713","Longittude":"-86.29127","StudentName":"Ivy Elizabeth Tyler"},
{"StudentId":"4044","Lattitude":"39.77222","Longittude":"-86.30034","StudentName":"Sianne Simone Wise"},
{"StudentId":"10019","Lattitude":"39.73615","Longittude":"-86.31058","StudentName":"Olivia Hicks"},
{"StudentId":"3201","Lattitude":"39.79105","Longittude":"-86.30919","StudentName":"Miley Gracia-Vela"},
{"StudentId":"16315","Lattitude":"39.75857168","Longittude":"-86.2853797","StudentName":"Aichatou Jallow"},
{"StudentId":"5631","Lattitude":"39.79248","Longittude":"-86.27114","StudentName":"Angel Lanay Ewing"},
{"StudentId":"4379","Lattitude":"39.77193","Longittude":"-86.22979","StudentName":"Jose Felipe Morin"},
{"StudentId":"19223","Lattitude":"39.76849","Longittude":"-86.28175","StudentName":"Daphne Marie Cordoba"},
{"StudentId":"12691","Lattitude":"39.77525","Longittude":"-86.29915","StudentName":"Abby Moore"},
{"StudentId":"9475","Lattitude":"39.77329","Longittude":"-86.25641","StudentName":"Christian Gerardo Garcia"},
{"StudentId":"4310","Lattitude":"39.76044","Longittude":"-86.28126","StudentName":"Ayobami Temitope Olufunmiwa"},
{"StudentId":"12681","Lattitude":"39.76881","Longittude":"-86.34249","StudentName":"Rayan Nansereko"},
{"StudentId":"11290","Lattitude":"39.72607839","Longittude":"-86.21405162","StudentName":"Isaac Jayden Santiago"},
{"StudentId":"9247","Lattitude":"39.75326187","Longittude":"-86.24030166","StudentName":"Daija Jerie Moss"},
{"StudentId":"5237","Lattitude":"39.74253","Longittude":"-86.31943","StudentName":"Jovan Woods Heinbaugh"},
{"StudentId":"12833","Lattitude":"39.74969","Longittude":"-86.25704","StudentName":"Deily Maritza Mendez Reyes"},
{"StudentId":"5209","Lattitude":"39.72463672","Longittude":"-86.21871134","StudentName":"Nataleigh Michelle Melton"},
{"StudentId":"15464","Lattitude":"39.75815","Longittude":"-86.31337","StudentName":"Abigail Denise Glaser"},
{"StudentId":"16300","Lattitude":"39.77893","Longittude":"-86.28328","StudentName":"Kameron Johnson"},
{"StudentId":"13387","Lattitude":"39.81745","Longittude":"-86.29253","StudentName":"Vanessa E'nae Jelks"},
{"StudentId":"10714","Lattitude":"39.78226","Longittude":"-86.31025","StudentName":"Lydia Joy Bonham"},
{"StudentId":"15706","Lattitude":"39.75615553","Longittude":"-86.25525447","StudentName":"Donavan Drake Gibson Lee Hughe"},
{"StudentId":"15708","Lattitude":"39.74533","Longittude":"-86.32019","StudentName":"Kayvani Lorenzo Umanzor"},
{"StudentId":"15237","Lattitude":"39.72093637","Longittude":"-86.23184926","StudentName":"Ignacio Javier Hernandez-Acost"},
{"StudentId":"4491","Lattitude":"39.77313","Longittude":"-86.21864","StudentName":"Kyle Yair Lopez"},
{"StudentId":"5753","Lattitude":"39.79702","Longittude":"-86.31124","StudentName":"Aidan Thomas Bullen"},
{"StudentId":"13542","Lattitude":"39.7964","Longittude":"-86.21937","StudentName":"Elias Jahel Sanchez"},
{"StudentId":"10221","Lattitude":"39.77532","Longittude":"-86.22864","StudentName":"Joshua Allen Mudd"},
{"StudentId":"5645","Lattitude":"39.7622","Longittude":"-86.26742","StudentName":"Tyrone Raynard Robinson"},
{"StudentId":"13901","Lattitude":"39.73339651","Longittude":"-86.25068878","StudentName":"Juliet Elise Gonzalez"},
{"StudentId":"15224","Lattitude":"39.7638","Longittude":"-86.22203","StudentName":"Cylas Joseph Linnenkamp"},
{"StudentId":"11064","Lattitude":"39.75977422","Longittude":"-86.21936586","StudentName":"Blessing Renee Hill"},
{"StudentId":"16442","Lattitude":"39.78547","Longittude":"-86.31738","StudentName":"Nevaeh Promise Satterfield"},
{"StudentId":"3027","Lattitude":"39.74722","Longittude":"-86.32587","StudentName":"Mariah Cohen"},
{"StudentId":"8126","Lattitude":"39.74026","Longittude":"-86.32513","StudentName":"Awwal Adedotun Adedokun"},
{"StudentId":"11596","Lattitude":"39.75440833","Longittude":"-86.23596546","StudentName":"Joseline Melendez"},
{"StudentId":"8369","Lattitude":"39.72249284","Longittude":"-86.23311041","StudentName":"Roberto C Mazariegos-Leon"},
{"StudentId":"7762","Lattitude":"39.7714551","Longittude":"-86.2640456","StudentName":"Jabrian Samireon Hayes"},
{"StudentId":"4475","Lattitude":"39.74333","Longittude":"-86.32008","StudentName":"Emily Nicole Lozano"},
{"StudentId":"19287","Lattitude":"39.81799","Longittude":"-86.30439","StudentName":"Alexis Nicole White"},
{"StudentId":"17877","Lattitude":"39.76724","Longittude":"-86.26647","StudentName":"Ahmed Mohamedsidi"},
{"StudentId":"17753","Lattitude":"39.77505","Longittude":"-86.31313","StudentName":"Rylyn Easton-Thomas Gazzam"},
{"StudentId":"3184","Lattitude":"39.76212","Longittude":"-86.25341","StudentName":"Dusten Barrett"},
{"StudentId":"13512","Lattitude":"39.76604","Longittude":"-86.39058","StudentName":"CHASE ALAN COOPER"},
{"StudentId":"12854","Lattitude":"39.75412769","Longittude":"-86.28399396","StudentName":"Cody Christophe Coe"},
{"StudentId":"16733","Lattitude":"39.77217","Longittude":"-86.24919","StudentName":"Marcus Perez-Cortez"},
{"StudentId":"4325","Lattitude":"39.75974","Longittude":"-86.23083","StudentName":"Charley Elaine Ward"},
{"StudentId":"9816","Lattitude":"39.72845153","Longittude":"-86.228348","StudentName":"Lilly-Mae Autumn Rain Harper"},
{"StudentId":"9700","Lattitude":"39.75626","Longittude":"-86.31604","StudentName":"Lainey A Lewellyn"},
{"StudentId":"3696","Lattitude":"39.76964","Longittude":"-86.26593","StudentName":"Jonnathan Alejandro Rangel-Mej"},
{"StudentId":"4226","Lattitude":"39.76048353","Longittude":"-86.24884123","StudentName":"Yahisan Carrera-Valdez"},
{"StudentId":"14519","Lattitude":"39.76222565","Longittude":"-86.24920984","StudentName":"Isaiah Lee Leonard"},
{"StudentId":"15033","Lattitude":"39.77597","Longittude":"-86.31349","StudentName":"Jackson Tarancon"},
{"StudentId":"17110","Lattitude":"39.78517","Longittude":"-86.28085","StudentName":"Zavien Kinmon"},
{"StudentId":"6965","Lattitude":"39.77717","Longittude":"-86.39748","StudentName":"Danielle Carson"},
{"StudentId":"18514","Lattitude":"39.74795527","Longittude":"-86.25478965","StudentName":"Aaron Jared Castaneda"},
{"StudentId":"9899","Lattitude":"39.80956","Longittude":"-86.30141","StudentName":"Jesus David Medina-Diaz"},
{"StudentId":"10196","Lattitude":"39.79062","Longittude":"-86.31043","StudentName":"Charles Bryan Clark"},
{"StudentId":"11274","Lattitude":"39.72902438","Longittude":"-86.2338056","StudentName":"ANTHONY ROBERTS"},
{"StudentId":"10188","Lattitude":"39.76334903","Longittude":"-86.28556413","StudentName":"Avery Keith Barham Rodgers"},
{"StudentId":"15260","Lattitude":"39.73579","Longittude":"-86.32207","StudentName":"La'Miya Ariana Owens"},
{"StudentId":"17358","Lattitude":"39.73011337","Longittude":"-86.2453138","StudentName":"Jazeria Jackson"},
{"StudentId":"13777","Lattitude":"39.79003","Longittude":"-86.20387","StudentName":"Adriana Alegria"},
{"StudentId":"9712","Lattitude":"39.78411","Longittude":"-86.3221","StudentName":"Angeles Monserrath Ramirez-Her"},
{"StudentId":"16230","Lattitude":"39.77329","Longittude":"-86.25641","StudentName":"La'Niyah Lashae Kirkwood"},
{"StudentId":"11976","Lattitude":"39.88692","Longittude":"-86.23039","StudentName":"Elijah Christian Allender"},
{"StudentId":"4648","Lattitude":"39.55203","Longittude":"-86.16246","StudentName":"Brandon Norbert Kern"},
{"StudentId":"10886","Lattitude":"39.77713","Longittude":"-86.2896","StudentName":"Le'Derrion Wisdom"},
{"StudentId":"9725","Lattitude":"39.73596349","Longittude":"-86.24826152","StudentName":"Aamiyah Brielle Marsee-Collazo"},
{"StudentId":"9942","Lattitude":"39.79513","Longittude":"-86.27104","StudentName":"Simisola Shontelle Sunday"},
{"StudentId":"9432","Lattitude":"39.77426","Longittude":"-86.28598","StudentName":"Sofia Noemi Velazquez"},
{"StudentId":"18904","Lattitude":"39.72550362","Longittude":"-86.23752362","StudentName":"LC Dustin Murphy"},
{"StudentId":"10177","Lattitude":"39.80458","Longittude":"-86.22867","StudentName":"Asandrea Michelle Owens"},
{"StudentId":"11899","Lattitude":"39.78545","Longittude":"-86.32254","StudentName":"Amanda Lupita Jimenez"},
{"StudentId":"5567","Lattitude":"39.80603","Longittude":"-86.326","StudentName":"Santana Rae Rodgers"},
{"StudentId":"9015","Lattitude":"39.77685","Longittude":"-86.26474","StudentName":"Dynasty Montgomery"},
{"StudentId":"17203","Lattitude":"39.72595997","Longittude":"-86.23190375","StudentName":"Matthew Daniel Coss"},
{"StudentId":"16303","Lattitude":"39.78314","Longittude":"-86.32259","StudentName":"Kameron Kendriquis Oglesby"},
{"StudentId":"14337","Lattitude":"39.79599","Longittude":"-86.27069","StudentName":"Joanna Omorinsola Oluwatodimu"},
{"StudentId":"4591","Lattitude":"39.79886","Longittude":"-86.30183","StudentName":"Tylan I Nichols"},
{"StudentId":"13280","Lattitude":"39.74695","Longittude":"-86.31116","StudentName":"Nathania B Gogo"},
{"StudentId":"10873","Lattitude":"39.7493","Longittude":"-86.27912","StudentName":"Eric J Gannett"},
{"StudentId":"7891","Lattitude":"39.77557","Longittude":"-86.26431","StudentName":"Abdulazeem Balogun"},
{"StudentId":"8560","Lattitude":"39.7885","Longittude":"-86.30874","StudentName":"Samantha Camila Martinez"},
{"StudentId":"7625","Lattitude":"39.7701","Longittude":"-86.26293","StudentName":"Genesis Dayana Altamirano Hern"},
{"StudentId":"12712","Lattitude":"39.78099","Longittude":"-86.27206","StudentName":"Emely Iveth Garcia Maravilla"},
{"StudentId":"12304","Lattitude":"39.77438","Longittude":"-86.26777","StudentName":"Oluwajoba Oluwagholahan Shittu"},
{"StudentId":"9204","Lattitude":"39.76633","Longittude":"-86.3221","StudentName":"Shannon Jean Vicory"},
{"StudentId":"8351","Lattitude":"39.74857715","Longittude":"-86.27956304","StudentName":"Andrea Hernandez-Zamorano"},
{"StudentId":"19362","Lattitude":"39.76225126","Longittude":"-86.28605139","StudentName":"Ava Evalynn Espino"},
{"StudentId":"12093","Lattitude":"39.81955","Longittude":"-86.27969","StudentName":"Trey Hamilton"},
{"StudentId":"18187","Lattitude":"39.79787","Longittude":"-86.27228","StudentName":"Oluomachukwu Aaron Peter"},
{"StudentId":"11137","Lattitude":"39.72677","Longittude":"-86.24148","StudentName":"Jordan Andrew Gaedtke"},
{"StudentId":"16929","Lattitude":"39.74830085","Longittude":"-86.25317103","StudentName":"Simone Veronica-H Russell"},
{"StudentId":"7332","Lattitude":"39.78772","Longittude":"-86.28474","StudentName":"Jackson James Faires"},
{"StudentId":"5027","Lattitude":"39.74908","Longittude":"-86.28336","StudentName":"Nikeli Joseph Tuttle"},
{"StudentId":"13644","Lattitude":"39.80787","Longittude":"-86.28183","StudentName":"Laniah Nicole Casey"},
{"StudentId":"11036","Lattitude":"39.74259","Longittude":"-86.30983","StudentName":"Joselyn Gisselle Campos-Esparz"},
{"StudentId":"10165","Lattitude":"39.78536","Longittude":"-86.32609","StudentName":"Liliana Romero Nepomuceno"},
{"StudentId":"7765","Lattitude":"39.77212","Longittude":"-86.23146","StudentName":"Yarelyn Powers-Cervera"},
{"StudentId":"11027","Lattitude":"39.7589089","Longittude":"-86.24121577","StudentName":"Jasmine Perez"},
{"StudentId":"15898","Lattitude":"39.75109903","Longittude":"-86.23888746","StudentName":"Savannah Nicole Barnes"},
{"StudentId":"10930","Lattitude":"39.81888","Longittude":"-86.28902","StudentName":"Brandon Trae Fuentes"},
{"StudentId":"7905","Lattitude":"39.80732","Longittude":"-86.28172","StudentName":"Namiya Marie Crew"},
{"StudentId":"8745","Lattitude":"39.74802","Longittude":"-86.32462","StudentName":"Isaiah Lamar White"},
{"StudentId":"10587","Lattitude":"39.78886","Longittude":"-86.29212","StudentName":"Xzavier Gutierrez-McCann"},
{"StudentId":"18732","Lattitude":"39.80108","Longittude":"-86.13525","StudentName":"David Diaz"},
{"StudentId":"10645","Lattitude":"39.7356","Longittude":"-86.24234","StudentName":"Madisyn Leeann Dillner"},
{"StudentId":"15470","Lattitude":"39.76014624","Longittude":"-86.2199694","StudentName":"Sara Isabel Bermudez-Mariscal"},
{"StudentId":"5530","Lattitude":"39.76472","Longittude":"-86.25743","StudentName":"Liesel Ann Marie Rose"},
{"StudentId":"5290","Lattitude":"39.77203","Longittude":"-86.31257","StudentName":"Addelyn Mae Luedeman"},
{"StudentId":"14399","Lattitude":"39.78385","Longittude":"-86.3172","StudentName":"Mackenzie Lynn Gilmore"},
{"StudentId":"12353","Lattitude":"39.81299","Longittude":"-86.28697","StudentName":"Bre'Asia N Carter"},
{"StudentId":"6389","Lattitude":"39.75913367","Longittude":"-86.23257977","StudentName":"Estefani Hernandez-Oviedo"},
{"StudentId":"5161","Lattitude":"39.76482","Longittude":"-86.25424","StudentName":"Agustin Elizafad Sanchez"},
{"StudentId":"17793","Lattitude":"39.80392","Longittude":"-86.31102","StudentName":"Noelle Evelyn Leighty"},
{"StudentId":"16083","Lattitude":"39.7397691","Longittude":"-86.24561335","StudentName":"Brenden Coxe"},
{"StudentId":"9499","Lattitude":"39.76256","Longittude":"-86.22848","StudentName":"Rodrick Malik Stone"},
{"StudentId":"16035","Lattitude":"39.8206","Longittude":"-86.28865","StudentName":"Alonzo C Woods"},
{"StudentId":"5902","Lattitude":"39.72810419","Longittude":"-86.22667698","StudentName":"Erik Perez"},
{"StudentId":"15472","Lattitude":"39.77626","Longittude":"-86.28982","StudentName":"Chiann Harris"},
{"StudentId":"3419","Lattitude":"39.78229","Longittude":"-86.28483","StudentName":"Jeremiah Octave"},
{"StudentId":"9523","Lattitude":"39.78555","Longittude":"-86.32376","StudentName":"Maddox Hatfield"},
{"StudentId":"10808","Lattitude":"39.76773","Longittude":"-86.26142","StudentName":"Tyrone Lidell Sayles"},
{"StudentId":"14405","Lattitude":"39.74319","Longittude":"-86.32305","StudentName":"Cayden Andre Smith"},
{"StudentId":"15718","Lattitude":"39.76615","Longittude":"-86.29025","StudentName":"Tre'Von Malik Taylor"},
{"StudentId":"10865","Lattitude":"39.73028852","Longittude":"-86.24537958","StudentName":"Brandon LaMarr Harrison"},
{"StudentId":"4212","Lattitude":"39.77882","Longittude":"-86.20982","StudentName":"Alexis Torres"},
{"StudentId":"17124","Lattitude":"39.75588922","Longittude":"-86.2459716","StudentName":"Adrian Garcia"},
{"StudentId":"14781","Lattitude":"39.81739","Longittude":"-86.28871","StudentName":"Jeremiah Bryant"},
{"StudentId":"3802","Lattitude":"39.80856","Longittude":"-86.2815","StudentName":"Trelayne Takari Lamont Keys"},
{"StudentId":"3262","Lattitude":"39.78368","Longittude":"-86.2826","StudentName":"Brian Martinez"},
{"StudentId":"17674","Lattitude":"39.79063","Longittude":"-86.27657","StudentName":"Carlos Enrique Gomez-Cruz"},
{"StudentId":"13197","Lattitude":"39.76446","Longittude":"-86.24435","StudentName":"Zachary Thomas Maloy"},
{"StudentId":"4020","Lattitude":"39.80752","Longittude":"-86.28128","StudentName":"Paige Alanis Mitchell"},
{"StudentId":"8670","Lattitude":"39.75495","Longittude":"-86.23814","StudentName":"Madison Elizabeth Marie Fink"},
{"StudentId":"11934","Lattitude":"39.78399","Longittude":"-86.25898","StudentName":"Demarius Marquan Tooson"},
{"StudentId":"11791","Lattitude":"39.78027","Longittude":"-86.32225","StudentName":"Angel Jones"},
{"StudentId":"18620","Lattitude":"39.75878","Longittude":"-86.32225","StudentName":"Tobechukwu Chinazaekpere Anuka"},
{"StudentId":"5071","Lattitude":"39.77179","Longittude":"-86.29921","StudentName":"Corderro LeQuince Bennett"},
{"StudentId":"7937","Lattitude":"39.77702","Longittude":"-86.29343","StudentName":"Dereon Jordin Taylor"},
{"StudentId":"5840","Lattitude":"39.76256","Longittude":"-86.22848","StudentName":"Adrianna Ann Stone"},
{"StudentId":"7051","Lattitude":"39.79255","Longittude":"-86.28535","StudentName":"Dagmawit Helena Gebrehiwet"},
{"StudentId":"9827","Lattitude":"39.77978","Longittude":"-86.27677","StudentName":"Dayanna Bigail Juarez"},
{"StudentId":"19127","Lattitude":"39.87999","Longittude":"-86.21325","StudentName":"Bryson James Moench"},
{"StudentId":"4529","Lattitude":"39.78028","Longittude":"-86.19857","StudentName":"Jim'Myiah Pierrina Filsaime"},
{"StudentId":"3146","Lattitude":"39.76059527","Longittude":"-86.25698712","StudentName":"Katherine Totten"},
{"StudentId":"11467","Lattitude":"39.78185","Longittude":"-86.31599","StudentName":"Eiliyah Coriya Wilson"},
{"StudentId":"7267","Lattitude":"39.77011","Longittude":"-86.2651","StudentName":"Jeremiah Dewayne Downing"},
{"StudentId":"17993","Lattitude":"39.76185","Longittude":"-86.26627","StudentName":"Sneydy Aimable"},
{"StudentId":"11125","Lattitude":"39.76522","Longittude":"-86.19308","StudentName":"Brian Vincent Haga"},
{"StudentId":"15397","Lattitude":"39.81175","Longittude":"-86.29269","StudentName":"Dashawna Evans"},
{"StudentId":"11045","Lattitude":"39.75349517","Longittude":"-86.26047485","StudentName":"Kyrei Perry"},
{"StudentId":"4826","Lattitude":"39.8113","Longittude":"-86.30321","StudentName":"Ka'Dence Marie Bland"},
{"StudentId":"14258","Lattitude":"39.74717","Longittude":"-86.2445","StudentName":"Emme Rose Whitley"},
{"StudentId":"19264","Lattitude":"39.75509774","Longittude":"-86.27795951","StudentName":"Alan Miguel Garcia-Lopez"},
{"StudentId":"5816","Lattitude":"39.81881","Longittude":"-86.28054","StudentName":"Jariel Esau Bueno"},
{"StudentId":"10684","Lattitude":"39.77197","Longittude":"-86.27991","StudentName":"Roberto James Gonzalez"},
{"StudentId":"6788","Lattitude":"39.77346","Longittude":"-86.29977","StudentName":"Myracle' Khalise Caldwell"},
{"StudentId":"6000","Lattitude":"39.81527","Longittude":"-86.28594","StudentName":"Jamon R Pickett"},
{"StudentId":"17696","Lattitude":"39.78293","Longittude":"-86.19926","StudentName":"Brooklyn Thompson"},
{"StudentId":"17095","Lattitude":"39.80475","Longittude":"-86.30869","StudentName":"Darcia Iysis Mari Walker"},
{"StudentId":"5614","Lattitude":"39.78389","Longittude":"-86.3206","StudentName":"Ra'Shaun Sheldon Da Snow"},
{"StudentId":"18675","Lattitude":"39.74076","Longittude":"-86.3198","StudentName":"Joshua A Rhinehart"},
{"StudentId":"15623","Lattitude":"39.74111","Longittude":"-86.32384","StudentName":"Sabrina Riley Bereman"},
{"StudentId":"6953","Lattitude":"39.79003","Longittude":"-86.27821","StudentName":"Allie Mae Collins"},